Address,City,State,Zip_code,LAT,LON
1761 Palmer Wasilla Highway,Wasilla,AK,99654,61.57818853,-149.407445
7285 U.S. Highway 431,Albertville,AL,35950,34.27631481,-86.20596854
955 Airport Drive,Alexander City,AL,35010,32.9207341,-85.95268935
2000 Quintard Avenue,Anniston,AL,36201,33.67071917,-85.82687522
710 Brindlee Mountain Parkway,Arab,AL,35016,34.32717738,-86.5029009
"205 U.S. Highway 72, W",Athens,AL,35611,34.78981876,-86.97207039
1225 South Main Street,Atmore,AL,36502,31.00609969,-87.49367523
500 Cherry Street,Attalla,AL,35954,34.01843664,-86.07722894
1580 Opelika Road,Auburn,AL,36830,32.62465756,-85.44643405
"1818 Ninth Avenue, North",Bessemer,AL,35020,33.40682357,-86.96118651
1217 Carraway Boulevard,Birmingham,AL,35234,33.53166436,-86.80632551
1653 Center Point Road,Birmingham,AL,35215,33.63105278,-86.68480163
1674 Gadsden Highway,Birmingham,AL,35235,33.60194011,-86.6386053
1800 20th Street Ensley,Birmingham,AL,35218,33.50944573,-86.88546095
1928 Bessemer Road,Birmingham,AL,35208,33.49210988,-86.88324525
7909 Crestwood Boulevard,Birmingham,AL,35210,33.530811,-86.71397992
828 Green Springs Highway,Birmingham,AL,35209,33.45931097,-86.81707054
1254 U.S. 431,Boaz,AL,35957,34.20419991,-86.15245169
1925 West Main Street,Centre,AL,35960,34.16076973,-85.71386918
104 Highway 280 B,Childersburg,AL,35044,33.28342732,-86.36186682
"2035 Seventh Street, South",Clanton,AL,35045,32.80317265,-86.58780077
"1620 Second Avenue, Southwest",Cullman,AL,35055,34.16100345,-86.83520262
5799 Alabama Highway 157,Cullman,AL,35058,34.20665126,-86.87160844
2208 Beltline Road,Decatur,AL,35601,34.58442471,-87.02384025
105 Highway 80 East,Demopolis,AL,36732,32.50366904,-87.83716497
109 N.E. Ross Clark Circle,Dothan,AL,36303,31.25280005,-85.38714782
1801 S.E. Ross Clark Circle,Dothan,AL,36301,31.19251072,-85.37962518
4468-2 West Main Street,Dothan,AL,36305,31.23771154,-85.46029778
612 Boll Weevil Circle,Enterprise,AL,36330,31.31781486,-85.83080865
840 Liberty Hill Drive,Evergreen,AL,36401,31.45442614,-86.96242483
7159 Aaron Aronov Drive,Fairfield,AL,35064,33.46671534,-86.91581149
1302 North Pine Street,Florence,AL,35630,34.81852785,-87.68704414
241 Cox Creek Parkway,Florence,AL,35630,34.83368141,-87.62967508
2460 South McKenzie Street,Foley,AL,36535,30.37960382,-87.68360944
1229 Forestdale Boulevard,Forestdale,AL,35214,33.56042996,-86.89200447
308 Greenhill Boulevard N.W,Fort Payne,AL,35967,34.469054,-85.70190006
579 E. Meighan Boulevard,Gadsden,AL,35903,34.00815875,-85.98401612
531 Fieldstown Road,Gardendale,AL,35071,33.65212536,-86.8208103
108 Greenville By-Pass,Greenville,AL,36037,31.84846531,-86.63967864
1501 South Gunter,Guntersville,AL,35976,34.34433561,-86.30523821
"1301 Highway 31, North",Hartselle,AL,35640,34.45511169,-86.94711917
5692 Highway 278 East,Hokes Bluff,AL,35903,33.98561172,-85.8663718
3065 Allison Bonnett Memorial Drive,Hueytown,AL,35023,33.45027108,-86.98445673
1003 Jordan Lane,Huntsville,AL,35816,34.73613943,-86.6274285
"1690 Highway 72, E",Huntsville,AL,35811,34.77320701,-86.53272054
2404 Memorial Parkway,Huntsville,AL,35801,34.71250278,-86.59105
4106 North College Ave,Jackson,AL,36545,31.55651,-87.87664
"1815 Ashville Road, NE, Highway 411",Leeds,AL,35094,33.56207407,-86.52242067
75835 Highway 77,Lincoln,AL,35096,33.59517067,-86.12154394
7874 Highway 72 West,Madison,AL,35758,34.75335879,-86.74467515
8966 Madison Boulevard,Madison,AL,35758,34.6761037,-86.7535351
"21363 Highway 11, North",McCalla,AL,35111,33.24633176,-87.13690471
12276 U.S. Highway 231,Meridianville,AL,35759,34.87005539,-86.57066175
3226 Alabama Highway 14,Millbrook,AL,36054,32.50965396,-86.38145239
2351 St. Stephens,Mobile,AL,36617,30.71950808,-88.08454376
2850 Springhill Ave,Mobile,AL,36607,30.69878754,-88.10854189
5109 Moffat Rd,Mobile,AL,36618,30.7204026,-88.15999502
"5437 Highway 90, W",Mobile,AL,36619,30.58716067,-88.16958859
775 Schillinger Road South,Mobile,AL,36695,30.67389263,-88.22450739
950 Main Street,Montevallo,AL,35115,33.10200441,-86.86041089
1955 Coliseum Boulevard,Montgomery,AL,36110,32.41859253,-86.26882025
2528 Eastern Boulevard,Montgomery,AL,36117,32.34768671,-86.22256694
2687 Zelda Road,Montgomery,AL,36107,32.36417641,-86.26734083
6808 Atlanta Highway,Montgomery,AL,36117,32.38227733,-86.17904124
917 W. South Boulevard,Montgomery,AL,36105,32.32612999,-86.32661557
11884 Highway 157,Moulton,AL,35650,34.48777844,-87.27621212
1910 Woodward Avenue,Muscle Shoals,AL,35661,34.74366914,-87.66782751
1901 32nd Street,Northport,AL,35476,33.23794305,-87.57687883
910 East Second Avenue,Oneonta,AL,35121,33.95416991,-86.46665995
"101 Sixth Street, North",Opelika,AL,36801,32.65089124,-85.37783312
2024 U. S. Highway 78 East,Oxford,AL,36203,33.61467376,-85.78824033
630 Cahaba Valley Road,Pelham,AL,35124,33.33532272,-86.78239472
703 23rd St N,Pell City,AL,35125,33.59562024,-86.28329667
1802 Stadium Drive,Phenix City,AL,36867,32.49742828,-85.01776655
601 13th Street,Phenix City,AL,36867,32.47079633,-85.00137521
206 Highway 278 Bypass East,Piedmont,AL,36272,33.93375061,-85.61016
1913 Cobbs Ford Road,Prattville,AL,36066,32.46045393,-86.41674297
15045 Hwy 43,Russellville,AL,35653,34.50965958,-87.71764588
815 Highway 43 S,Saraland,AL,36571,30.80337771,-88.07202814
23115 John T. Reid Parkway,Scottsboro,AL,35768,34.65017436,-86.0289047
1326 Highland Avenue,Selma,AL,36701,32.43124617,-87.01698049
1560 Highway 77,Southside,AL,35907,33.93118322,-86.02432731
39 Springville Station,Springville,AL,35146,33.77873576,-86.4302037
1204 Talladega Highway,Sylacauga,AL,35150,33.18453076,-86.24576169
219 Haynes Street,Talladega,AL,35160,33.43720266,-86.08220738
"32475 Highway 43, SW",Thomasville,AL,36784,31.91392534,-87.74116281
101 Highway 231 North,Troy,AL,36081,31.79241297,-85.97727534
"1101 Lurleen Wallace Boulevard, South",Tuscaloosa,AL,35401,33.20333342,-87.56861888
1111 Skyland Boulevard,Tuscaloosa,AL,35405,33.16809467,-87.52178155
3006 20th Avenue,Valley,AL,36854,32.84300909,-85.18009936
5278 U. S. Highway 231,Wetumpka,AL,36092,32.51761384,-86.21124895
"469 Highway 71, N",Alma,AR,72921,35.49121667,-94.22614873
921 Clinton St,Arkadelphia,AR,71923,34.12034645,-93.05732508
1311 St. Louis Street,Batesville,AR,72501,35.76616528,-91.64106697
522 N. East Street,Benton,AR,72015,34.56845987,-92.58545613
1618 E Centerton Blvd,Bentonville,AR,72712,36.35790005,-94.25760222
903 N. Walton Boulevard,Bentonville,AR,72712,36.38213626,-94.22132303
930 West Trimble,Berryville,AR,72616,36.37686355,-93.58395104
901 North 6th Street,Blytheville,AR,72315,35.93516908,-89.9100974
711 E. Main,Booneville,AR,72927,35.14061048,-93.91213236
2007 North Main,Brinkley,AR,72021,34.91207684,-91.19593215
116 Bryant Avenue,Bryant,AR,72022,34.62245174,-92.49760522
1003 W. Main,Cabot,AR,72023,34.97639984,-92.02682015
1440 U.S. Highway 278 West,Camden,AR,71701,33.58406206,-92.80449146
1240 South Rogers,Clarksville,AR,72830,35.45396252,-93.46505138
1333 Highway 65 S,Clinton,AR,72031,35.57608362,-92.45187084
2670 Donaghey Street,Conway,AR,72032,35.11207641,-92.44844614
201 First Street,Crossett,AR,71635,33.13529934,-91.96000897
603 E. Collin Raye Drive,De Queen,AR,71832,34.04560219,-94.33104571
433 W. Hillsboro Street,El Dorado,AR,71730,33.20741463,-92.66922722
1882 W. Martin Luther King Jr. Boulevard,Fayetteville,AR,72701,36.05659162,-94.18624046
2700 N. Washington Street,Forrest City,AR,72335,35.02871295,-90.78980659
1601 Highway 71,Fort Smith,AR,72901,35.32811637,-94.41815881
4207 Grand Avenue,Fort Smith,AR,72904,35.38568462,-94.38463678
2291 Highway 62,Hardy,AR,72542,36.26689332,-91.51534761
"1715 Highway 25, N",Heber Springs,AR,72543,35.50969777,-92.0292184
2017 North Hazel,Hope,AR,71801,33.68806337,-93.59595442
141 E Grand Avenue,Hot Springs,AR,71901,34.50320693,-93.0489265
4010 Central Avenue,Hot Springs,AR,71913,34.45613394,-93.06329441
139 Southwest Drive,Jonesboro,AR,72401,35.82003363,-90.70635615
2003 West Parker Road,Jonesboro,AR,72404,35.81720619,-90.73293787
2020 South Caraway Road,Jonesboro,AR,72401,35.82027817,-90.67776926
100 Markham Park Drive,Little Rock,AR,72211,34.75434156,-92.40400143
8220 Geyer Springs Road,Little Rock,AR,72209,34.6749908,-92.34409366
1690 N. Center Street,Lonoke,AR,72086,34.80050748,-91.88974405
1509 E. Main Street,Magnolia,AR,71753,33.26669924,-93.22231576
20704 Highway 365 North,Maumelle,AR,72113,34.88403854,-92.38426324
403 Highway 71 N,Mena,AR,71953,34.58599092,-94.22811431
352 Highway 62 E Mountain Home,Mountain Home,AR,72653,36.34251075,-92.38186704
105 Sylamore Ave,Mountain View,AR,72560,35.86557813,-92.10781886
320 S. Main Street,Nashville,AR,71852,33.94069468,-93.84726721
4400 Camp Robinson,North Little Rock,AR,72118,34.79502392,-92.27119061
1001 W. Keiser,Osceola,AR,72370,35.69758552,-89.98346353
103 Airport Road,Ozark,AR,72949,35.51249716,-93.82210525
2401 W. Kings Highway,Paragould,AR,72450,36.05955343,-90.51750105
2707 West 28th,Pine Bluff,AR,71603,34.20189271,-92.03085385
3002 Pines Mall Drive,Pine Bluff,AR,71601,34.20793319,-91.96986076
1052 Highway 62 West,Pocahontas,AR,72455,36.25477622,-90.97437405
507 S. Eighth Street,Rogers,AR,72756,36.32893699,-94.12568785
720 N. Arkansas Avenue,Russellville,AR,72801,35.2850684,-93.13342178
2504 E. Race Street,Searcy,AR,72143,35.25062239,-91.70717426
8350 Warden Road,Sherwood,AR,72120,34.83018921,-92.1827293
1115 U.S. Highway 412 W,Siloam Springs,AR,72761,36.17538241,-94.5527225
600 South Thompson Street,Springdale,AR,72764,36.17988959,-94.13894521
4010 North State Line Road,Texarkana,AR,71854,33.46197816,-94.04297178
504 Hwy 63,Trumann,AR,72472,35.67857352,-90.51555025
511 North Plaza Dr,Van Buren,AR,72956,35.46007002,-94.35539052
401 N.W. 4th Street,Walnut Ridge,AR,72476,36.0725856,-90.95559467
789 N. Sebastian,West Helena,AR,72390,34.55439061,-90.65550023
400 N. Missouri St,West Memphis,AR,72301,35.15075754,-90.18489247
900 Martin Luther King Dr,West Memphis,AR,72301,35.15464918,-90.13727601
1913 N. Falls,Wynne,AR,72396,35.2480988,-90.78162728
3051 W Apache Trail,Apache Junction,AZ,85120,33.4149882,-111.5784855
1470 N 8th St,Avondale,AZ,85323,33.44902548,-112.3412053
650 South Highway 90,Benson,AZ,85602,31.96228541,-110.3457755
682 S. Watson Rd,Buckeye,AZ,85326,33.4407181,-112.5564857
2350 Miracle Mile,Bullhead City,AZ,86442,35.10083151,-114.5965584
618 E. Florence,Casa Grande,AZ,85122,32.87963942,-111.7459344
2760 West Chandler Boulevard,Chandler,AZ,85224,33.30606797,-111.8907439
1147 N Hwy 89,Chino Valley,AZ,86323,34.76128923,-112.4535107
1505 N. Arizona Boulevard,Coolidge,AZ,85128,32.99604881,-111.5229163
970 S. Main,Cottonwood,AZ,86326,34.72257664,-112.004549
2453 South Gilbert Road,Gilbert,AZ,85295,33.30507751,-111.7895928
3626 W. Pinnacle Peak Rd,Glendale,AZ,85310,33.69838427,-112.1399359
4338 W Glendale Ave,Glendale,AZ,85301,33.5385462,-112.1529541
6708 W. Deer Valley Road,Glendale,AZ,85310,33.68197931,-112.203843
16980 W. Yuma Road,Goodyear,AZ,85338,33.43570494,-112.4234036
280 W. Continental Road,Green Valley,AZ,85622,31.8519497,-110.9975325
3350 N. Stockton Hill,Kingman,AZ,86409,35.22088304,-114.0357344
195 North Lake Havasu Avenue,Lake Havasu City,AZ,86403,34.47963124,-114.3479987
5145 W. Baseline Road,Laveen,AZ,85339,33.37738537,-112.1705163
13006 W Indian School Road,Litchfield Park,AZ,85340,33.49343837,-112.3397573
21566 N. John Wayne Parkway,Maricopa,AZ,85139,33.07480739,-112.0432429
10720 E Baseline Road,Mesa,AZ,85209,33.37909032,-111.6028926
1950 W Baseline Rd,Mesa,AZ,85202,33.37868806,-111.8758994
2210 E Baseline Rd,Mesa,AZ,85204,33.37913696,-111.7853314
2757 E Main St,Mesa,AZ,85213,33.41531917,-111.7715269
420 North Alma School Rd,Mesa,AZ,85201,33.42330408,-111.856583
360 W. Mariposa Road,Nogales,AZ,85621,31.36638892,-110.9370964
6765 W Peoria Ave,Peoria,AZ,85345,33.58151639,-112.205648
7541 W Thunderbird Road,Peoria,AZ,85381,33.61013629,-112.2212382
9251 W Union Hills Dr,Peoria,AZ,85382,33.65252732,-112.2575515
1525 N 43rd Ave,Phoenix,AZ,85009,33.46499883,-112.1516908
1749 W. Bethany Home Rd,Phoenix,AZ,85015,33.52393435,-112.0977173
1843 West Union Hills Dr,Phoenix,AZ,85027,33.65458327,-112.0990208
20 E Baseline Road,Phoenix,AZ,85042,33.37787033,-112.0726017
2902 N 7th Ave,Phoenix,AZ,85013,33.48070548,-112.0831318
3550 W Thunderbird Rd,Phoenix,AZ,85053,33.61095518,-112.1353609
3702 E Thomas Rd,Phoenix,AZ,85018,33.48050454,-112.0015479
4050 East Bell Road,Phoenix,AZ,85032,33.64081277,-111.9937071
7634 W Indian School Rd,Phoenix,AZ,85033,33.49467896,-112.2245335
7860 E. Highway 69,Prescott Valley,AZ,86314,34.58564047,-112.3295082
547 Miller Valley Road,Prescott,AZ,86301,34.55045424,-112.4788939
57 W. Combs Road,Queen Creek,AZ,85140,33.21987107,-111.5642979
1817 Thatcher Boulevard,Safford,AZ,85546,32.83519084,-109.730842
8050 E Indian School Rd,Scottsdale,AZ,85251,33.4949678,-111.9066546
180 N. White Mountain Road,Show Low,AZ,85901,34.25155374,-110.0287249
1060 Fry Boulevard,Sierra Vista,AZ,85635,31.55454863,-110.2877491
10661 Grand Avenue,Sun City,AZ,85351,33.60219144,-112.2889456
12621 W Bell Rd,Surprise,AZ,85378,33.63839264,-112.3328428
705 W Baseline Rd,Tempe,AZ,85283,33.37808953,-111.9503664
Maloney And Spur,Tuba City,AZ,86045,36.12347087,-111.2344531
2970 W Valencia Rd,Tucson,AZ,85746,32.13388135,-111.0300246
2985 South Kino Parkway,Tucson,AZ,85713,32.18391879,-110.9435467
7245 E. Golf Links Road,Tucson,AZ,85730,32.19210143,-110.8381849
7901 N. Oracle Hwy,Tucson,AZ,85704,32.34967763,-110.975541
8270 N. Cortaro Road,Tucson,AZ,85743,32.35701157,-111.0918923
800 N. Grand Canyon Boulevard,Williams,AZ,86046,35.25743134,-112.1918256
11183 S. Frontage Drive,Yuma,AZ,85367,32.66900996,-114.4424672
1950 Fourth Avenue,Yuma,AZ,85364,32.69245754,-114.6247478
848 East 32nd Street,Yuma,AZ,85365,32.66950965,-114.6105859
14258 Highway 395,Adelanto,CA,92301,34.51042868,-117.3996858
2424 Encinal Avenue,Alameda,CA,94501,37.76213975,-122.2437653
1425 South New,Alhambra,CA,91801,34.07847465,-118.1083928
5005 E. Willows Road,Alpine,CA,91901,32.84075239,-116.7054164
100 S. Magnolia Ave,Anaheim,CA,92804,33.83211586,-117.9753596
131 W. Ball Rd,Anaheim,CA,92805,33.81820899,-117.9094636
2026 E. Lincoln Ave,Anaheim,CA,92806,33.83964806,-117.8880057
299 S. Euclid St,Anaheim,CA,92802,33.82952988,-117.9416215
8101 Watt Avenue,Antelope,CA,95843,38.71666451,-121.3925037
2751 Hillcrest Avenue,Antioch,CA,94509,37.99316194,-121.7837995
18447 Highway 18,Apple Valley,CA,92307,34.53931111,-117.2616258
849 South Baldwin,Arcadia,CA,91007,34.13033403,-118.0547394
1395 Atwater Boulevard,Atwater,CA,95301,37.34670993,-120.6109346
2400 Grass Valley Highway,Auburn,CA,95603,38.93520277,-121.0930893
806 E Alosta Ave,Azusa,CA,91702,34.12943505,-117.8927578
72922 Baker Blvd,Baker,CA,92309,35.27704658,-116.0567726
11935 Rosedale Hwy,Bakersfield,CA,93312,35.38305886,-119.1368318
2674 Mount Vernon Avenue,Bakersfield,CA,93305,35.39534348,-118.9676457
3011 Brundage Ln,Bakersfield,CA,93304,35.35406049,-119.0379779
6320 White Ln,Bakersfield,CA,93309,35.31830573,-119.0728072
14200 Ramona Blvd,Baldwin Park,CA,91706,34.08536599,-117.9642913
1930 West Ramsey Street,Banning,CA,92220,33.92532543,-116.8980126
5735 Florence,Bell Gardens,CA,90201,33.96785477,-118.1635886
41800 Washington St,Bermuda Dunes,CA,92203,33.74486089,-116.3037101
1006 North Main Street,Bishop,CA,93514,37.37154481,-118.3952799
5080 Bonita Road,Bonita,CA,91902,32.67004689,-117.022319
215 West Main,Brawley,CA,92227,32.97872375,-115.5442555
6371 Lone Tree Way,Brentwood,CA,94513,37.96145791,-121.7349305
7810 Brentwood Boulevard,Brentwood,CA,94513,37.94346206,-121.6960712
6851 Beach Blvd,Buena Park,CA,90621,33.86091594,-117.9982737
3530 W. Victory Blvd,Burbank,CA,91505,34.18466302,-118.3500756
213 East Cole Road,Calexico,CA,92231,32.69412302,-115.4955432
2350 Las Posas Road,Camarillo,CA,93010,34.23532318,-119.0388721
3959 Cameron Park Drive,Cameron Park,CA,95682,38.6609277,-120.9693238
1805 Winchester Road,Campbell,CA,95008,37.29107833,-121.9499844
20101 Sherman Way,Canoga Park,CA,91306,34.2012072,-118.5717988
21930 Sherman Way,Canoga Park,CA,91303,34.20093659,-118.605469
19307 Soledad Canyon Rd,Canyon Country,CA,91351,34.41583164,-118.4729125
2120 41st Avenue,Capitola,CA,95010,36.97923751,-121.964801
745 Carlsbad Village Drive,Carlsbad,CA,92008,33.16040398,-117.346251
18401 S. Avalon Blvd,Carson,CA,90746,33.86259205,-118.2663563
545 East Sepulveda,Carson,CA,90745,33.80835543,-118.265042
619 W Carson Street,Carson,CA,90745,33.8317174,-118.2866974
3625 Castro Valley Blvd,Castro Valley,CA,94546,37.69489261,-122.072071
32120 Date Palm Drive,Cathedral City,CA,92234,33.81389817,-116.4578843
2040 Whitmore Avenue,Ceres,CA,95307,37.59463984,-120.9576078
1980 E. 20th Street,Chico,CA,95928,39.72739226,-121.8029711
4135 Chino Hills Parkway,Chino Hills,CA,91709,33.98250406,-117.7141442
12862 Central Avenue,Chino,CA,91710,34.02000679,-117.6894626
1105 E Robertson Blvd,Chowchilla,CA,93610,37.12649042,-120.2475502
1327 Broadway,Chula Vista,CA,91911,32.60256053,-117.0782184
1361 Medical Center Drive,Chula Vista,CA,91911,32.61534855,-117.0268442
461 3rd Ave,Chula Vista,CA,91910,32.6358587,-117.0777089
7098 Auburn Boulevard,Citrus Heights,CA,95621,38.69410597,-121.2913824
1860 Ashlan Avenue,Clovis,CA,93611,36.79385477,-119.6810563
198 West Shaw Avenue,Clovis,CA,93612,36.80837406,-119.7132995
49950 Harrison St,Coachella,CA,92236,33.68759997,-116.1815147
451 E. Elm Avenue,Coalinga,CA,93210,36.14348387,-120.3568391
792 West Valley Blvd,Colton,CA,92324,34.06841758,-117.3353415
103 North Central Avenue,Compton,CA,90220,33.896374,-118.252106
221 South Long Beach Blvd,Compton,CA,90221,33.89462344,-118.2079985
4660 Clayton Road,Concord,CA,94521,37.96179442,-121.9847329
1151 W 6th St,Corona,CA,92882,33.8775129,-117.5852856
1300 E. Ontario Avenue,Corona,CA,92881,33.8461277,-117.5385629
100 B Ave,Coronado,CA,92118,32.69764077,-117.1701988
465 E 17th St,Costa Mesa,CA,92627,33.62940323,-117.9102356
1057 N. Grand Avenue,Covina,CA,91724,34.09895193,-117.8727393
9041 Valley View Street,Cypress,CA,90630,33.83108358,-118.0285533
2815 Geneva Avenue,Daly City,CA,94014,37.70684461,-122.4145039
287 Westmoor Ave,Daly City,CA,94015,37.68311365,-122.4882226
7199 Mission Street,Daly City,CA,94014,37.69373751,-122.4648299
1617 Research Park Dr,Davis,CA,95616,38.54027119,-121.7323443
812 Cecil Avenue,Delano,CA,93215,35.77584844,-119.2477834
13947 Palm Drive,Desert Hot Springs,CA,92240,33.94722725,-116.5014029
542 N. Diamond Bar Blvd,Diamond Bar,CA,91765,34.02974891,-117.8099692
333 Monte Vista Drive,Dinuba,CA,93618,36.54502431,-119.4042364
7865 East Florence Avenue,Downey,CA,90240,33.9547145,-118.1320593
1128 East Huntington Drive,Duarte,CA,91010,34.13950571,-117.9806957
6797 Village Parkway,Dublin,CA,94568,37.70647552,-121.9238415
2949 Jamacha Road,El Cajon,CA,92019,32.7397498,-116.940453
555 N 2nd St,El Cajon,CA,92021,32.80114601,-116.9356371
724 Fletcher Pky,El Cajon,CA,92020,32.80788803,-116.9716651
1775 South Imperial,El Centro,CA,92243,32.777327,-115.5694606
3814 North Peck Road,El Monte,CA,91732,34.07449876,-118.0225099
2330 Longport Court,Elk Grove,CA,95758,38.42538165,-121.4816503
8579 Elk Grove Boulevard,Elk Grove,CA,95624,38.4091999,-121.3855753
4501 San Pablo Avenue,Emeryville,CA,94608,37.83427784,-122.2810717
2429 East Valley Parkway,Escondido,CA,92027,33.14187084,-117.0420689
639 N. Broadway,Escondido,CA,92025,33.12781483,-117.0843227
2245 Broadway,Eureka,CA,95501,40.7873006,-124.1808097
8810 Madison Avenue,Fair Oaks,CA,95628,38.66389608,-121.229371
2263 N. Texas Street,Fairfield,CA,94533,38.27013632,-122.0342873
1077 S Mission Rd,Fallbrook,CA,92028,33.37354372,-117.2537778
2535 Iron Point Road,Folsom,CA,95630,38.64701175,-121.1175619
14570 Baseline Avenue,Fontana,CA,92336,34.12162395,-117.4865997
9758 Sierra Ave,Fontana,CA,92335,34.07666597,-117.4358342
17239 Brookhurst Street,Fountain Valley,CA,92708,33.7129778,-117.9546436
190 Francisco Lane,Fremont,CA,94539,37.49103794,-121.9277161
37123 Fremont Boulevard,Fremont,CA,94536,37.55981299,-122.0103037
4961 Mowry Avenue,Fremont,CA,94538,37.53721335,-121.9979546
1110 C Street,Fresno,CA,93706,36.72947636,-119.7992853
1904 West Olive,Fresno,CA,93728,36.75752695,-119.8338974
2031 North Blackstone Avenue,Fresno,CA,93703,36.76942484,-119.7907342
3218 East Jensen,Fresno,CA,93706,36.70658266,-119.7700828
3846 North West Avenue,Fresno,CA,93705,36.78709412,-119.8263527
4175 West Shaw,Fresno,CA,93722,36.80808313,-119.8667687
4909 East McKinley Avenue,Fresno,CA,93727,36.76531959,-119.7311844
4948 East Kings Canyon,Fresno,CA,93727,36.73579877,-119.7309452
5775 North 1st Street,Fresno,CA,93710,36.82228159,-119.7724141
7152 North Blackstone Avenue,Fresno,CA,93650,36.8401018,-119.790187
150 W. Orangethorpe Ave,Fullerton,CA,92832,33.8593695,-117.9263548
1889 West Malvern Ave,Fullerton,CA,92833,33.87795642,-117.9614116
10350 Twin Cities Road,Galt,CA,95632,38.29097438,-121.3099722
12042 Valley View Blvd,Garden Grove,CA,92845,33.78776691,-118.028351
12861 Harbor Blvd,Garden Grove,CA,92840,33.77601753,-117.9172866
8971 Westminster Ave,Garden Grove,CA,92844,33.75951874,-117.9729709
1078 Rosecrans Avenue,Gardena,CA,90247,33.90181018,-118.2932975
5884 Monterey Rd,Gilroy,CA,95020,36.98375349,-121.5570386
8080 Wren Ave,Gilroy,CA,95020,37.01478237,-121.5865972
200 N Verdugo Rd,Glendale,CA,91206,34.14811921,-118.2350858
5697 Calle Real,Goleta,CA,93117,34.44112257,-119.8232404
1983 Nevada City Hwy,Grass Valley,CA,95945,39.23712161,-121.0371266
412 N. Redington,Hanford,CA,93230,36.32885879,-119.6494232
11523 Hawthorne Blvd,Hawthorne,CA,90250,33.92941863,-118.3528809
1299 West Tennyson Road,Hayward,CA,94544,37.63148294,-122.0788316
31077 Mission Boulevard,Hayward,CA,94544,37.62030177,-122.0363428
2890 West Florida Avenue,Hemet,CA,92545,33.74744654,-117.0017965
3440 East Florida Avenue,Hemet,CA,92544,33.74781807,-116.9352121
16800 Main Street,Hesperia,CA,92345,34.42088241,-117.2964118
7347 Boulder Avenue,Highland,CA,92346,34.11982692,-117.1949976
191 McCray Street,Hollister,CA,95023,36.85489609,-121.3988587
19091 Brookhurst Street,Huntington Beach,CA,92646,33.68558389,-117.9542161
6100 West Warner Avenue,Huntington Beach,CA,92647,33.71532717,-118.0226817
8142 Talbert Ave,Huntington Beach,CA,92646,33.70110185,-117.9878308
3100 E Gage Ave,Huntington Park,CA,90255,33.98072189,-118.2126529
1056 13th St,Imperial Beach,CA,91932,32.57731165,-117.1058244
42750 A Jackson Street,Indio,CA,92203,33.74051611,-116.2164324
81769 US Highway 111,Indio,CA,92201,33.71148876,-116.2378404
2941 West Imperial Hwy,Inglewood,CA,90303,33.93105777,-118.3258734
15463 Culver Drive,Irvine,CA,92604,33.69505877,-117.8001865
531 Highway 49,Jackson,CA,95642,38.34355534,-120.7684901
157 South Madera,Kerman,CA,93630,36.7336453,-120.0603239
1300 Broadway Circle,King City,CA,93930,36.20355744,-121.1374775
450 North Harbor,La Habra,CA,90631,33.93559175,-117.9329263
13970 Imperial Highway,La Mirada,CA,90638,33.91695286,-118.034372
939 North Hacienda Blvd,La Puente,CA,91744,34.036876,-117.9500815
30071 Alicia Parkway,Laguna Niguel,CA,92677,33.52607807,-117.7175942
31257 Riverside Drive,Lake Elsinore,CA,92530,33.68283308,-117.3682832
321 Summerhill Drive,Lake Elsinore,CA,92532,33.66411809,-117.2986432
24541 Trabuco Road,Lake Forest,CA,92630,33.65463884,-117.7016165
1135 Lakeport Boulevard,Lakeport,CA,95453,39.03179064,-122.9250675
12061 Woodside Ave,Lakeside,CA,92040,32.85575859,-116.9323938
4917 Bellflower Blvd,Lakewood,CA,90713,33.8477956,-118.1252098
1827 E. Ave. J,Lancaster,CA,93535,34.68974319,-118.0963338
"43559 10th Street, West",Lancaster,CA,93534,34.67439187,-118.1480125
866 W Avenue I,Lancaster,CA,93534,34.70384951,-118.1475404
150 E. Louise Ave,Lathrop,CA,95330,37.8116575,-121.2929837
7012 Broadway,Lemon Grove,CA,91945,32.74262307,-117.0464648
1019 North Lemoore Avenue,Lemoore,CA,93245,36.31186247,-119.7809488
35 Lincoln Blvd,Lincoln,CA,95648,38.87165196,-121.2983648
6061 Northfront Road,Livermore,CA,94550,37.71174364,-121.7229103
18780 N Highway 88,Lockeford,CA,95237,38.15442946,-121.1555231
2712 W. Kettleman Lane,Lodi,CA,95242,38.11528717,-121.3091994
24866 Redlands Blvd,Loma Linda,CA,92354,34.06319114,-117.2620494
26715 Western Ave,Lomita,CA,90717,33.77856917,-118.3095794
1401 North H Street,Lompoc,CA,93436,34.66124451,-120.4578226
1601 East Seventh Street,Long Beach,CA,90813,33.77585788,-118.1718244
1601 West Willow Street,Long Beach,CA,90810,33.80448736,-118.214658
209 E. Pacific Coast Highway,Long Beach,CA,90806,33.78997138,-118.1905828
2970 Bellflower Boulevard,Long Beach,CA,90815,33.80881709,-118.1251282
4001 East Anaheim Street,Long Beach,CA,90804,33.7826735,-118.1453872
4528 Atlantic Avenue,Long Beach,CA,90807,33.84087687,-118.1840341
10501 W Pico Blvd,Los Angeles,CA,90064,34.04521858,-118.4191167
1148 W Manchester Ave,Los Angeles,CA,90044,33.95992687,-118.2957108
11864 Wilmington Ave,Los Angeles,CA,90059,33.92590584,-118.2389446
11900 Wilshire Blvd,Los Angeles,CA,90025,34.04651984,-118.4643954
1244 S. La Brea Ave,Los Angeles,CA,90019,34.05216547,-118.3439522
126 Vermont Avenue,Los Angeles,CA,90004,34.07219796,-118.2915949
1425 West Martin Luther King Boulevard,Los Angeles,CA,90062,34.01094914,-118.3008262
1550 S. La Cienega Blvd,Los Angeles,CA,90035,34.04920111,-118.3760412
1601 Crenshaw Blvd,Los Angeles,CA,90019,34.04439138,-118.3287046
2801 North Broadway,Los Angeles,CA,90031,34.07395504,-118.2130368
2801 West Olympic Boulevard,Los Angeles,CA,90006,34.05274333,-118.2949766
2809 South Figueroa,Los Angeles,CA,90007,34.025712,-118.2777175
320 North Soto,Los Angeles,CA,90033,34.04727618,-118.2074033
340 North Western Avenue,Los Angeles,CA,90004,34.07736669,-118.3091036
380 World Way,Los Angeles,CA,90045,33.94469216,-118.4082469
4270 South Central Ave,Los Angeles,CA,90011,34.00624086,-118.2564157
5130 Obama Blvd,Los Angeles,CA,90016,34.0214332,-118.3570788
5220 W Centinela Ave,Los Angeles,CA,90045,33.97722914,-118.3713451
5720 S. Vermont Avenue,Los Angeles,CA,90037,33.98991239,-118.2914083
5811 Whittier Blvd,Los Angeles,CA,90022,34.0180843,-118.1458388
5925 West Third Street,Los Angeles,CA,90036,34.06965921,-118.3493395
624 South Lorena,Los Angeles,CA,90023,34.03034838,-118.1992099
8500 Lincoln Blvd,Los Angeles,CA,90045,33.96024636,-118.4194872
8515 S. Central Ave,Los Angeles,CA,90001,33.96026669,-118.2569284
748 West Pacheco Boulevard,Los Banos,CA,93635,37.05696571,-120.8618979
16150 Los Gatos Boulevard,Los Gatos,CA,95032,37.23409372,-121.9636437
9750 Highway 53,Lower Lake,CA,95457,38.911875,-122.6121059
4339 E. Imperial Highway,Lynwood,CA,90262,33.93087219,-118.1844669
1144 Country Club Drive,Madera,CA,93638,36.97659608,-120.0743279
1211 E. Yosemite Avenue,Manteca,CA,95336,37.79758391,-121.1966124
3134 Del Monte Ave,Marina,CA,93933,36.68598824,-121.8009842
4025 Slauson Avenue,Maywood,CA,90270,33.9880595,-118.193586
180 West Olive Avenue,Merced,CA,95348,37.3187351,-120.4729418
2016 E. Childs Avenue,Merced,CA,95341,37.28776447,-120.4523294
950 El Camino Real,Millbrae,CA,94030,37.60597458,-122.3966014
73 South Main Street,Milpitas,CA,95035,37.42970617,-121.9067104
10865 Sepulveda Blvd,Mission Hills,CA,91345,34.26802961,-118.4673878
1420 Kansas Avenue,Modesto,CA,95351,37.64593412,-121.0296141
1467 Mitchell Rd,Modesto,CA,95351,37.60989778,-120.9389033
3250 Dale Road,Modesto,CA,95356,37.68669983,-121.0497027
3400 McHenry Avenue,Modesto,CA,95350,37.68670849,-120.9940835
950 Oakdale Road,Modesto,CA,95355,37.6553406,-120.9573126
320 West Beverly Road,Montebello,CA,90640,34.01629695,-118.1014402
12280 Heacock Street,Moreno Valley,CA,92557,33.94198388,-117.2436809
16040 Perris Boulevard,Moreno Valley,CA,92551,33.8882823,-117.2251993
17050 Laurel Road,Morgan Hill,CA,95037,37.13123792,-121.6368763
2609 Charleston Road,Mountain View,CA,94043,37.42173736,-122.1006855
696 West El Camino Real,Mountain View,CA,94040,37.38528183,-122.0826849
40702 California Oaks Road,Murrieta,CA,92562,33.57023003,-117.2046967
295 Soscol Ave,Napa,CA,94559,38.28463963,-122.2747524
3246 Jefferson St,Napa,CA,94558,38.3205742,-122.2991611
840 Highland Ave,National City,CA,91950,32.67750926,-117.0985969
1330 Hamner Avenue,Norco,CA,92860,33.90011769,-117.5627474
4801 Watt Ave,North Highlands,CA,95660,38.65281598,-121.3831446
12044 Roscoe Boulevard,North Hollywood,CA,91605,34.2215674,-118.3956879
6502 Laurel Canyon Blvd,North Hollywood,CA,91606,34.1886755,-118.3964035
8644 Balboa Blvd,Northridge,CA,91325,34.22784821,-118.5024923
10905 Imperial Highway,Norwalk,CA,90650,33.91724244,-118.1013582
10937 Alondra Blvd,Norwalk,CA,90650,33.88765243,-118.1012828
12959 Rosecrans Avenue,Norwalk,CA,90650,33.90247895,-118.055869
1560 East F Street,Oakdale,CA,95361,37.77326117,-120.8298718
3400 Foothill Boulevard,Oakland,CA,94601,37.78284854,-122.2198922
3734 Macarthur Boulevard,Oakland,CA,94619,37.79196983,-122.1988932
6035 Telegraph Road,Oakland,CA,94609,37.84691548,-122.2611157
7272 East 14th Street,Oakland,CA,94621,37.7594635,-122.1873361
950 Market Street,Oakland,CA,94607,37.80362059,-122.2825346
9825 East 14th Street,Oakland,CA,94603,37.74385961,-122.1702781
2007 Mission Ave,Oceanside,CA,92054,33.2041225,-117.3643033
3747 Mission Avenue,Oceanside,CA,92058,33.22421269,-117.3325745
4100 Oceanside Blvd,Oceanside,CA,92056,33.20672935,-117.2872868
1108 W. Mission Blvd,Ontario,CA,91762,34.05673445,-117.6700193
2454 South Archibald Ave,Ontario,CA,91761,34.02908486,-117.5933996
4371 Ontario Mills Parkway,Ontario,CA,91764,34.06913396,-117.5567049
2469 N. Tustin Street,Orange,CA,92865,33.82937687,-117.8360242
708 N. Tustin St,Orange,CA,92867,33.79894387,-117.8358017
660 Oro Dam Blvd. E,Oroville,CA,95965,39.49927652,-121.5666453
191 W. Gonzales Road,Oxnard,CA,93036,34.2192506,-119.1781497
3351 Saviers Road,Oxnard,CA,93033,34.16946239,-119.1777753
13720 Van Nuys Blvd,Pacoima,CA,91331,34.25885433,-118.4318063
725 S Palm Canyon Dr,Palm Springs,CA,92264,33.81161976,-116.5446941
2351 E. Avenue S,Palmdale,CA,93550,34.55819759,-118.0866798
2050 Fair Oaks Boulevard,Pasadena,CA,91103,34.18109846,-118.1507065
2896 E. Colorado Blvd,Pasadena,CA,91107,34.1460473,-118.0905586
820 North Lake Avenue,Pasadena,CA,91104,34.16001968,-118.1324012
2405 Riverside Drive,Paso Robles,CA,93446,35.64001752,-120.6882815
15014 Rogers Road,Patterson,CA,95363,37.46637009,-121.175766
701 East Washington Street,Petaluma,CA,94952,38.24148161,-122.6331532
9619 Sheep Creek Road,Phelan,CA,92371,34.42492197,-117.5724161
1544 Fitzgerald Dr,Pinole,CA,94564,37.99143249,-122.3019335
2155 Railroad Avenue,Pittsburg,CA,94565,38.01466921,-121.8901811
1404 Kraemer Boulevard,Placentia,CA,92870,33.8871877,-117.8631754
73 Main Street,Placerville,CA,95667,38.72776249,-120.8077757
635 Contra Costa Boulevard,Pleasant Hill,CA,94523,37.9738802,-122.0640316
1803 Santa Rita Road,Pleasanton,CA,94566,37.67773614,-121.8744995
2294 N. Garey Avenue,Pomona,CA,91767,34.08928895,-117.7495485
375 E. Mission Blvd,Pomona,CA,91766,34.05528268,-117.7470053
351 E Channel Islands Blvd,Port Hueneme,CA,93041,34.1764989,-119.1951765
642 West Olive,Porterville,CA,93257,36.06609393,-119.0314195
12660 Poway Rd,Poway,CA,92064,32.95404488,-117.0574473
1025 Main Street,Ramona,CA,92065,33.04176499,-116.8692593
10399 Folsom Blvd,Rancho Cordova,CA,95670,38.5887565,-121.3039076
11425 Baseline Road,Rancho Cucamonga,CA,91730,34.12066999,-117.5554281
8140 Vineyard Ave,Rancho Cucamonga,CA,91730,34.10563429,-117.6112271
29840 Santa Margarita,Rancho Santa Margarita,CA,92688,33.63747156,-117.60905
135 Lake Blvd. East,Redding,CA,96003,40.610471,-122.372481
645 E. Redlands Boulevard,Redlands,CA,92373,34.05418684,-117.174526
204 El Camino Real,Redwood City,CA,94062,37.49240106,-122.2429545
659 Woodside Road,Redwood City,CA,94061,37.46839214,-122.2236738
864 West Manning,Reedley,CA,93654,36.6043154,-119.4569753
6916 Reseda Boulevard,Reseda,CA,91335,34.19602004,-118.5360122
223 E Foothill Blvd,Rialto,CA,92376,34.10664001,-117.3666076
12319 San Pablo Avenue,Richmond,CA,94805,37.93598463,-122.3255302
15555 San Pablo Ave,Richmond,CA,94806,37.99016193,-122.336144
6328 Rio Linda Blvd,Rio Linda,CA,95673,38.68227196,-121.4567493
1005 Highway 12,Rio Vista,CA,94571,38.16212551,-121.6989988
2200 Patterson Road,Riverbank,CA,95367,37.73253598,-120.9577349
10061 Magnolia Ave,Riverside,CA,92503,33.91478699,-117.4566863
5225 Canyon Crest Dr,Riverside,CA,92507,33.95557142,-117.3292573
6221 Van Buren Blvd,Riverside,CA,92503,33.94450929,-117.4537383
7970 Limonite Ave,Riverside,CA,92509,33.97812804,-117.4586095
4855 Granite Drive,Rocklin,CA,95677,38.78941425,-121.22454
6710 Five-Star Blvd,Rocklin,CA,95677,38.78049465,-121.2641867
6700 Commerce Boulevard,Rohnert Park,CA,94928,38.34338733,-122.7120722
1089 Sunrise Avenue,Roseville,CA,95661,38.72816297,-121.2719799
5130 Foothills Blvd,Roseville,CA,95747,38.76185056,-121.310736
17901 Colima Road,Rowland Heights,CA,91748,33.9899456,-117.9133784
1501 Meadowview Road,Sacramento,CA,95832,38.48139594,-121.5012781
1601 Del Paso Boulevard,Sacramento,CA,95815,38.60725745,-121.4569894
2128 Sutterville Road,Sacramento,CA,95822,38.53862875,-121.4896748
2312 Arden Way,Sacramento,CA,95825,38.59601556,-121.4097121
2920 Del Paso Road,Sacramento,CA,95834,38.65514674,-121.5270755
3030 Capitol Avenue,Sacramento,CA,95816,38.56952933,-121.4671192
3551 Bradshaw Rd,Sacramento,CA,95827,38.55855089,-121.3360462
3580 Northgate Boulevard,Sacramento,CA,95834,38.63304814,-121.4754316
3820 Florin Road,Sacramento,CA,95823,38.4959382,-121.4612229
4219 Marconi Ave,Sacramento,CA,95821,38.61770795,-121.3657648
5835 Madison Avenue,Sacramento,CA,95841,38.66081179,-121.3282847
6099 Stockton Boulevard,Sacramento,CA,95824,38.51606736,-121.438352
7821 Alta Valley Drive,Sacramento,CA,95823,38.47310062,-121.425424
8335 Elk Grove Florin Road,Sacramento,CA,95829,38.45552884,-121.3715679
1209 South Main Street,Salinas,CA,93901,36.65772318,-121.6593528
2040 North Main Street,Salinas,CA,93906,36.72296885,-121.6562187
700 East Alisal Street,Salinas,CA,93905,36.67278206,-121.6322835
2084 S. Marina Drive,Salton City,CA,92274,33.2785525,-115.9653586
2007 E Highland Ave,San Bernardino,CA,92404,34.13574755,-117.2433148
4694 University Parkway,San Bernardino,CA,92407,34.17109383,-117.3338385
808 W Highland Ave,San Bernardino,CA,92405,34.13611344,-117.3013217
12305 Alemania Road,San Diego,CA,92129,32.93743752,-117.1124968
155 Marketplace Avenue,San Diego,CA,92113,32.70361118,-117.0995557
2260 Callagan Hwy,San Diego,CA,92136,32.69070963,-117.1267314
2829 University Ave,San Diego,CA,92104,32.74826505,-117.1328983
4140 Convoy Street,San Diego,CA,92111,32.81752121,-117.1550157
4290 Clairemont Mesa Blvd,San Diego,CA,92117,32.83286382,-117.2011072
4380 Palm Avenue,San Diego,CA,92154,32.58385273,-117.0386521
4545 El Cajon Blvd,San Diego,CA,92115,32.75529707,-117.0970888
6605 Mission Gorge Rd,San Diego,CA,92120,32.79337612,-117.0972367
6745 Mira Mesa Blvd,San Diego,CA,92121,32.90742282,-117.1714529
7049 Eastman Street,San Diego,CA,92111,32.78948781,-117.1686012
7180 Miramar Rd,San Diego,CA,92121,32.88103489,-117.1581771
723 West Arrow Highway,San Dimas,CA,91773,34.10676479,-117.8187615
1327 San Fernando Road,San Fernando,CA,91340,34.28588981,-118.4446502
1150 Taraval Street,San Francisco,CA,94116,37.74299623,-122.4787434
200 Duboce Avenue,San Francisco,CA,94103,37.76980476,-122.4248749
4150 Geary Boulevard,San Francisco,CA,94118,37.78127351,-122.4642771
4285 Mission St,San Francisco,CA,94112,37.72886949,-122.4310756
691 Eddy Street,San Francisco,CA,94109,37.78310072,-122.4189903
518 East Las Tunas Drive,San Gabriel,CA,91776,34.10329554,-118.0940118
1395 Stanwood Avenue,San Jose,CA,95118,37.24675076,-121.8898583
2342 Story Road,San Jose,CA,95122,37.34744393,-121.8317267
2415 South King Road,San Jose,CA,95122,37.32179102,-121.8255243
250 North Bascom Avenue,San Jose,CA,95128,37.32741185,-121.931922
2672 Cropley Avenue,San Jose,CA,95132,37.40376966,-121.8809339
3098 McKee Road,San Jose,CA,95127,37.37467959,-121.8354184
3144 South Bascom Avenue,San Jose,CA,95124,37.26654944,-121.9404978
3288 South White Road,San Jose,CA,95148,37.31467745,-121.7918921
4162 Monterey Highway,San Jose,CA,95111,37.27744852,-121.8344671
552 East Santa Clara Street,San Jose,CA,95112,37.34175603,-121.8787204
6171 Santa Teresa Boulevard,San Jose,CA,95123,37.23684825,-121.8047465
626 Blossom Hill Road,San Jose,CA,95123,37.25047548,-121.8439927
983 Meridian Avenue,San Jose,CA,95126,37.30816566,-121.9137728
32032 Camino Capistrano,San Juan Capistrano,CA,92675,33.49734859,-117.6624313
15179 Hesperian Boulevard,San Leandro,CA,94578,37.69983669,-122.130177
2187 Merced Street,San Leandro,CA,94577,37.70911549,-122.1713547
17630 Hesperian Blvd,San Lorenzo,CA,94580,37.67383847,-122.1230557
201 S. Rancho Santa Fe Road,San Marcos,CA,92078,33.14550797,-117.2004957
771 Center Drive,San Marcos,CA,92069,33.13458285,-117.1213539
14400 San Pablo Avenue,San Pablo,CA,94806,37.96566124,-122.3446341
415 S Gaffey Street,San Pedro,CA,90731,33.74010071,-118.2924813
555 Second Street,San Rafael,CA,94901,37.97028285,-122.5199552
2020 San Ramon Valley Boulevard,San Ramon,CA,94583,37.78389438,-121.9796758
2030 Dairy Mart Road,San Ysidro,CA,92173,32.56151203,-117.0625563
4698 Border Village Rd,San Ysidro,CA,92173,32.54775021,-117.0341447
1325 E. 17th Street,Santa Ana,CA,92705,33.76002648,-117.8507101
1345 South Main Street,Santa Ana,CA,92707,33.72999559,-117.867685
2600 S. Bristol St,Santa Ana,CA,92704,33.71237437,-117.8853944
762 South Harbor Blvd,Santa Ana,CA,92704,33.73749747,-117.9201696
515 N. Milpas St,Santa Barbara,CA,93103,34.42668916,-119.6858972
1353 El Camino Real,Santa Clara,CA,95050,37.35319725,-121.9510494
2207 South Broadway,Santa Maria,CA,93454,34.92018871,-120.4361203
150 E Harvard Blvd,Santa Paula,CA,93060,34.34662923,-119.0706573
2249 Santa Rosa Ave,Santa Rosa,CA,95407,38.41724072,-122.7137229
3205 Cleveland Avenue,Santa Rosa,CA,95403,38.47315994,-122.7310885
401 Stony Point Road,Santa Rosa,CA,95401,38.43231931,-122.742128
8890 Cuyamaca St,Santee,CA,92071,32.83842467,-116.9839496
1175 Fremont Boulevard,Seaside,CA,93955,36.60242896,-121.8489942
2438 McCall Avenue,Selma,CA,93662,36.5699845,-119.6105904
8800 Sepulveda Blvd,Sepulveda,CA,91343,34.23007498,-118.467624
1595 E. Los Angeles Avenue,Simi Valley,CA,93065,34.2718487,-118.7680664
1001 Mono Way,Sonora,CA,95370,37.97566685,-120.3668433
1927 North Durfee,South El Monte,CA,91733,34.04503923,-118.0309011
1318 Huntington Drive,South Pasadena,CA,91030,34.10401004,-118.1530999
1111 El Camino Real,South San Francisco,CA,94080,37.65659089,-122.4369108
199 Airport Boulevard,South San Francisco,CA,94080,37.65339536,-122.4086088
8330 Paradise Valley Rd,Spring Valley,CA,91977,32.69728272,-117.0194053
12007 Beach Blvd,Stanton,CA,90680,33.78789942,-117.9931347
134 East Charter Way,Stockton,CA,95206,37.93895549,-121.285374
1537 N. Wilson Way,Stockton,CA,95205,37.97135105,-121.2758714
3264 West Hammer Lane,Stockton,CA,95209,38.02115305,-121.3571679
3519 East Hammer Lane,Stockton,CA,95212,38.02134033,-121.270072
4450 East Waterloo Rd,Stockton,CA,95215,37.9877302,-121.2450939
4455 Pacific Ave,Stockton,CA,95207,37.98843336,-121.3117566
26660 Encanto Dr,Sun City,CA,92585,33.73364672,-117.1887799
1065 East El Camino Real,Sunnyvale,CA,94087,37.3523569,-122.0035127
1695 Hollenbeck Road,Sunnyvale,CA,94087,37.33819134,-122.0416263
340 West Maude Avenue,Sunnyvale,CA,94085,37.3892248,-122.0293928
3010 Riverside Drive,Susanville,CA,96130,40.40591348,-120.6318815
12910-B Foothill Boulevard,Sylmar,CA,91342,34.29464333,-118.4165975
13924 Foothill Boulevard,Sylmar,CA,91342,34.31237842,-118.4367807
32425 Hwy 79,Temecula,CA,92592,33.48287976,-117.0909533
3605 E Thousand Oaks Blvd,Thousand Oaks,CA,91362,34.16550436,-118.8307742
16502 South Crenshaw Boulevard,Torrance,CA,90504,33.88066947,-118.3263741
2215 Sepulveda Blvd,Torrance,CA,90501,33.82031177,-118.3202099
4525 Torrance Blvd,Torrance,CA,90503,33.83768763,-118.3617984
2290 W. Grant Line Road,Tracy,CA,95377,37.75400383,-121.4586849
845 E. Prosperity,Tulare,CA,93274,36.22574,-119.3363971
2705 W. Monte Vista Avenue,Turlock,CA,95380,37.52197454,-120.8797454
400 North Golden State Boulevard,Turlock,CA,95380,37.49743081,-120.8481595
1022 E. First Street,Tustin,CA,92780,33.7449527,-117.8141136
1139 North State Street,Ukiah,CA,95482,39.1651557,-123.2105009
32004 Alvarado Boulevard,Union City,CA,94587,37.58889983,-122.0678948
100 Universal City Plaza,Universal City,CA,91608,34.1340234,-118.3516687
1188 W Foothill Blvd,Upland,CA,91786,34.10680284,-117.6695213
980 Alamo Drive,Vacaville,CA,95687,38.34291655,-121.995214
1300 Georgia Street,Vallejo,CA,94590,38.10097645,-122.2410435
2150 Redwood Street,Vallejo,CA,94590,38.12226871,-122.2366247
14522 Burbank Blvd,Van Nuys,CA,91411,34.17202808,-118.449673
3553 Telegraph Rd,Ventura,CA,93003,34.27334167,-119.2470273
12125 Mariposa Road,Victorville,CA,92395,34.47107512,-117.34279
14284 Outer 7th Street,Victorville,CA,92395,34.51042801,-117.319503
1699 East Noble Avenue,Visalia,CA,93292,36.32563734,-119.2743001
5143 W. Walnut,Visalia,CA,93277,36.31268458,-119.3482239
840 E. Vista Way,Vista,CA,92084,33.21032958,-117.2341863
1610 Freedom Boulevard,Watsonville,CA,95076,36.93227371,-121.7700501
19080 La Puente Road,West Covina,CA,91792,34.00999557,-117.8855577
555 South Glendora Avenue,West Covina,CA,91790,34.06516291,-117.9280483
812 Westacre Road,West Sacramento,CA,95691,38.57968057,-121.5307097
6641 Westminster Blvd,Westminster,CA,92683,33.7591873,-118.0126872
13106 Whittier Boulevard,Whittier,CA,90602,33.96501909,-118.0363037
16161 Leffingwell Road,Whittier,CA,90603,33.93230314,-117.9859382
226 N. Humboldt Avenue,Willows,CA,95988,39.52204965,-122.212081
6610 Hembree Lane,Windsor,CA,95492,38.5271015,-122.7906232
18585 Van Buren Blvd,Woodcrest,CA,92504,33.88708729,-117.3394804
83 West Main St,Woodland,CA,95695,38.67747652,-121.7874984
17520 Yorba Linda,Yorba Linda,CA,92886,33.88834347,-117.8275558
23030 Eastpark Drive,Yorba Linda,CA,92887,33.872658,-117.7365147
1293 South Main Street,Yreka,CA,96097,41.71694401,-122.6400443
33911 Yucaipa Boulevard,Yucaipa,CA,92399,34.03380814,-117.0641294
56945 29 Palm Highway,Yucca Valley,CA,92284,34.12111023,-116.4213799
2007 West Main Street,Alamosa,CO,81101,37.47146373,-105.8857404
6390 Sheridan Blvd,Arvada,CO,80003,39.81098526,-105.0531076
7785 Wadsworth Blvd,Arvada,CO,80003,39.83856648,-105.0819626
9200 Ralston Road,Arvada,CO,80002,39.8019491,-105.1009021
14411 East Colfax Avenue,Aurora,CO,80011,39.74035757,-104.8207445
15290 East Mississippi Avenue,Aurora,CO,80012,39.69645989,-104.8108698
1551 S. Havana Street,Aurora,CO,80012,39.68868844,-104.8660938
16901 East Quincy,Aurora,CO,80015,39.63861861,-104.78942
3210 Arapahoe Avenue,Boulder,CO,80303,40.01452654,-105.251091
4740 Bromley Lane,Brighton,CO,80603,39.97175591,-104.758315
6400 West 120th Avenue,Broomfield,CO,80020,39.91407875,-105.0672972
186 Metzler Drive,Castle Rock,CO,80104,39.40982495,-104.860121
3219 F Road,Clifton,CO,81520,39.09166699,-108.4557472
1050 North Academy Boulevard,Colorado Springs,CO,80909,38.8479142,-104.7576483
1501 South Nevada Avenue,Colorado Springs,CO,80906,38.81245388,-104.8222105
2835 New Center Point,Colorado Springs,CO,80922,38.87193125,-104.7155294
3101 W. Colorado Avenue,Colorado Springs,CO,80904,38.85351923,-104.8728351
3255 South Academy Boulevard,Colorado Springs,CO,80916,38.78569493,-104.7573576
3775 Austin Bluffs Parkway,Colorado Springs,CO,80918,38.89063035,-104.757805
5550 East Woodmen Road,Colorado Springs,CO,80920,38.94026867,-104.7252846
8115 Dorothy Lane,Colorado Springs,CO,80918,38.95059915,-104.8018114
825 East Fillmore Street,Colorado Springs,CO,80907,38.87404877,-104.8105394
15101 E. 104th Avenue,Commerce City,CO,80022,39.88560586,-104.812069
5101 E. 60th Avenue,Commerce City,CO,80022,39.80566066,-104.929112
2222 East Main Street,Cortez,CO,81321,37.34941006,-108.5575262
707 West Victory Way,Craig,CO,81625,40.51428328,-107.555558
15495 E. Andrews Drive,Denver,CO,80239,39.77384044,-104.8078579
1679 Federal Boulevard,Denver,CO,80204,39.74387601,-105.025987
2096 South Colorado Boulevard,Denver,CO,80222,39.67910383,-104.9405654
2815 Colorado Boulevard,Denver,CO,80207,39.75697947,-104.9407309
302 South Colorado Boulevard,Denver,CO,80246,39.71094544,-104.9405766
3110 South Sheridan,Denver,CO,80227,39.6551459,-105.0530502
4880 N. Tower Road,Denver,CO,80249,39.78490906,-104.7719992
7140 Pecos Street,Denver,CO,80221,39.82615938,-105.0061441
8500 Pena Blvd,Denver,CO,80249,39.85114888,-104.6748914
110 Collins Street,Eaton,CO,80615,40.52452062,-104.711991
7384 McLaughlin Rd,Falcon,CO,80831,38.93948024,-104.6052369
4335 City Centre Blvd,Firestone,CO,80504,40.15969,-104.9723121
1533 Prussman Boulevard,Fort Carson,CO,80913,38.74024007,-104.7846467
1227 E. Magnolia,Fort Collins,CO,80524,40.58432366,-105.0558859
4001 South College Avenue,Fort Collins,CO,80525,40.53145923,-105.0772707
6660 Camden Ave,Fountain,CO,80817,38.74495105,-104.7385998
1000 Lake Point Drive,Frisco,CO,80443,39.59165907,-106.0946819
1111 North Avenue,Grand Junction,CO,81501,39.07729472,-108.5540643
2413 8th Avenue,Greeley,CO,80631,40.39856817,-104.6911969
2804 West 10th Avenue,Greeley,CO,80634,40.42276633,-104.7269059
10220 West Colfax Ave,Lakewood,CO,80215,39.74010524,-105.113043
13109 W. Alameda Pkwy,Lakewood,CO,80228,39.69799156,-105.1453641
200 Wadsworth Boulevard,Lakewood,CO,80226,39.72010809,-105.0813385
2599 South Lewis Way,Lakewood,CO,80227,39.66907628,-105.1122719
10161 West Bowles Avenue,Littleton,CO,80127,39.60980877,-105.1120551
1960 East County Line Road,Littleton,CO,80126,39.566055,-104.9638379
2900 W. Belleview Avenue,Littleton,CO,80123,39.62400029,-105.0231266
8164 S. Kipling Parkway,Littleton,CO,80127,39.56782235,-105.10993
2604 Main Street,Longmont,CO,80504,40.20319791,-105.102385
1650 Foxtrail Dr,Loveland,CO,80538,40.40917995,-105.0012552
2991 N. Garfield Avenue,Loveland,CO,80538,40.42307864,-105.0774692
2175 South Townsend,Montrose,CO,81401,38.46260389,-107.8661251
10790 Washington Street,Northglenn,CO,80233,39.89218729,-104.9775824
16950 E. Lincoln Avenue,Parker,CO,80134,39.53374037,-104.7926118
1644 S. Prairie Avenue,Pueblo,CO,81005,38.23974992,-104.6436128
4171 N. Elizabeth Street,Pueblo,CO,81008,38.31137234,-104.6154219
625 Snapdragon Way,Steamboat Springs,CO,80477,40.46036265,-106.8201367
2581 E. 120th Ave,Thornton,CO,80233,39.91395861,-104.9558189
212 Nevada Avenue,Trinidad,CO,81082,37.16995731,-104.5101235
457-A US Highway 85-87,Walsenburg,CO,81089,37.65388753,-104.793271
250 W. 136th Avenue,Westminster,CO,80234,39.94296088,-104.991719
9185 North Federal Boulevard,Westminster,CO,80260,39.8629551,-105.0252529
1590 Main Street,Windsor,CO,80550,40.47957493,-104.9307997
1000 Blue Hills Avenue,Bloomfield,CT,06002,41.8189732,-72.69549685
325 Boston Avenue,Bridgeport,CT,06610,41.20044199,-73.18357613
4301 North Main Street,Bridgeport,CT,06606,41.21870106,-73.21552814
470 Farmington Avenue,Bristol,CT,06010,41.68937212,-72.92807781
250 Albany Turnpike,Canton,CT,06019,41.8291409,-72.90173486
32 Shunpike Road,Cromwell,CT,06416,41.60182547,-72.67612839
1 Federal Road,Danbury,CT,06811,41.43034589,-73.41570794
91 North Street,Danbury,CT,06810,41.40903188,-73.45564886
578 Providence Rd,Danielson,CT,06239,41.79938054,-71.90149356
7 Pershing Drive,Derby,CT,06418,41.3321328,-73.08433823
300 Burnside Avenue,East Hartford,CT,06108,41.77612244,-72.62579865
650 East Main Street,East Haven,CT,06512,41.28485501,-72.88612374
41 Prospect Hill Rd,East Windsor,CT,06088,41.91846386,-72.61012914
230 Route,Groton,CT,06340,41.36885034,-72.07031661
1499 Dixwell Avenue,Hamden,CT,06514,41.35337161,-72.93007082
501 Farmington Avenue,Hartford,CT,06105,41.76647452,-72.7085632
779 Albany Avenue,Hartford,CT,06112,41.77930697,-72.68940135
"307 Middle Turnpike, West",Manchester,CT,06040,41.78115963,-72.53789918
722 East Main Street,Meriden,CT,06450,41.52964073,-72.7791708
382 South Main Street,Middletown,CT,06457,41.54577416,-72.65131735
115 Bridge Street,Naugatuck,CT,06770,41.50178378,-73.05099258
412 West Main Street,New Britain,CT,06052,41.66515544,-72.79580478
311 Whalley Avenue,New Haven,CT,06511,41.3170659,-72.94343472
451 Foxon Boulevard,New Haven,CT,06513,41.31981646,-72.87017311
315 Westport Ave,Norwalk,CT,06851,41.12539118,-73.39385451
45 Salem Turnpike,Norwich,CT,06360,41.5135013,-72.10756762
480 Boston Post Road,Orange,CT,06477,41.25644695,-73.01415042
866 Queen Street,Southington,CT,06489,41.64057963,-72.87412564
285 W. Main Street,Stamford,CT,06902,41.04940118,-73.5497668
1322 Barnum Avenue,Stratford,CT,06614,41.1971816,-73.13698043
581 Winsted Road,Torrington,CT,06790,41.82783706,-73.11049787
328 Hartford Turnpike,Vernon Rockville,CT,06066,41.82690888,-72.4900518
649 West Main Street,Waterbury,CT,06702,41.55834845,-73.0505625
717 Lakewood Road,Waterbury,CT,06704,41.57220362,-73.00943598
930 New Britain Avenue,West Hartford,CT,06110,41.73131443,-72.71561122
31 Town Line Road,Wethersfield,CT,06109,41.6830392,-72.65547997
1589 West Main Street,Willimantic,CT,06226,41.7221675,-72.23855794
7 Food Court Pentagon 2c754,Washington,DC,20310,38.86688374,-77.05576145
220 Fox Hunt Dr,Bear,DE,19701,39.6081755,-75.71305678
344 Walmart Drive,Camden,DE,19934,39.10117509,-75.54444055
609 Naamans Rd,Claymont,DE,19703,39.81668064,-75.4571245
223 S. Dupont Hwy,Dover,DE,19901,39.16097496,-75.5129959
1 Georgetown Plaza,Georgetown,DE,19947,38.68066367,-75.39524174
649 N. Dupont Blvd,Milford,DE,19963,38.9174575,-75.44151328
112 N Dupont Hwy,New Castle,DE,19720,39.66701131,-75.60129713
23458 Sussex Highway,Seaford,DE,19973,38.6542169,-75.59469185
134 N Dupont Blvd,Smyrna,DE,19977,39.30477679,-75.6054977
1925 Lancaster Ave,Wilmington,DE,19805,39.74673033,-75.57415943
356 E Main Street,Apopka,FL,32703,28.67299871,-81.50384409
2333 Southeast Highway 70,Arcadia,FL,34266,27.20886,-81.83005158
3105 Havendale Boulevard,Auburndale,FL,33823,28.05261601,-81.77335008
1492 N. Broadway Avenue,Bartow,FL,33830,27.90854111,-81.84325775
959 South Main Street,Belle Glade,FL,33430,26.67371399,-80.67032243
5120 SE Abshier Blvd,Belleview,FL,34420,29.06073152,-82.0638416
1601 N Federal Highway,Boca Raton,FL,33432,26.36531486,-80.079785
28200 S. Tamiami Trail,Bonita Springs,FL,34134,26.32695033,-81.80582415
131 E. Boynton Beach Blvd,Boynton Beach,FL,33435,26.52897971,-80.06275075
360 North Congress Ave,Boynton Beach,FL,33426,26.53008048,-80.09039748
1420 Cortez Road West,Bradenton,FL,34207,27.46251602,-82.5766488
525 First Street East,Bradenton,FL,34208,27.4940596,-82.5628265
6440 E. State Road 64,Bradenton,FL,34208,27.49192747,-82.47908569
1102 West Brandon Blvd,Brandon,FL,33511,27.9378871,-82.29999037
"1145 U.S. Highway 41, S",Brooksville,FL,34601,28.44968102,-82.45328684
1969 W. County Road 48,Bushnell,FL,33513,28.66855098,-82.13681846
20 Hancock Bridge Parkway,Cape Coral,FL,33991,26.65038064,-81.97495473
2210 South Del Prado Boulevard,Cape Coral,FL,33990,26.61064609,-81.94127592
1594 Main Street,Chipley,FL,32428,30.75576154,-85.54958405
1648 S. Missouri Avenue,Clearwater,FL,33756,27.93706638,-82.78755959
1960 Gulf To Bay Boulevard,Clearwater,FL,33765,27.96068524,-82.75611392
510 U.S. Hwy 27,Clermont,FL,34714,28.35300594,-81.67536712
590 E. South Highway 50,Clermont,FL,34711,28.54936114,-81.74830044
411 West Sugarland Highway,Clewiston,FL,33440,26.75428049,-80.93854578
5990 S. Flamingo Road,Cooper City,FL,33330,26.04629216,-80.3128967
10395 W. Sample Rd,Coral Springs,FL,33065,26.27274535,-80.26484434
5850 Wiles Road,Coral Springs,FL,33067,26.28604383,-80.20451428
511 North Ferdon Boulevard,Crestview,FL,32536,30.76506862,-86.56890023
849 South Highway 19,Crystal River,FL,34429,28.88816504,-82.58421445
13245 U.S. Highway 301,Dade City,FL,33525,28.35108584,-82.18765108
4200 SW 64th Ave,Davie,FL,33314,26.06912534,-80.23217555
948 Mason Avenue,Daytona Beach,FL,32117,29.22020467,-81.04646852
177 N. Powerline Rd,Deerfield Beach,FL,33442,26.31987523,-80.15301072
2482 US Hwy. 331 S,Defuniak Springs,FL,32435,30.68629727,-86.12273471
1206 South Woodland Boulevard,Deland,FL,32720,29.00852048,-81.3029032
1408 North Woodland Boulevard,Deland,FL,32720,29.05248882,-81.30438359
14470 So. Military Trail,Delray Beach,FL,33484,26.46168837,-80.12243427
360 Linton Blvd,Delray Beach,FL,33444,26.43961188,-80.07656576
1232 Providence Boulevard,Deltona,FL,32725,28.88295103,-81.24069018
956 Patricia Ave,Dunedin,FL,34698,28.01816463,-82.77574791
11583 N. Williams St,Dunnellon,FL,34432,29.055232,-82.45644662
349 E. Semoran Boulevard,Fern Park,FL,32730,28.65767538,-81.33649174
232 S.E. 1st Avenue,Florida City,FL,33034,25.44583358,-80.47521834
3061 W Sunrise Blvd,Fort Lauderdale,FL,33311,26.13641553,-80.18598768
3100 W Broward Blvd,Fort Lauderdale,FL,33312,26.12106345,-80.18627755
401 W Broward Blvd,Fort Lauderdale,FL,33312,26.12236915,-80.14786182
990 W. Commercial Blvd,Fort Lauderdale,FL,33309,26.18832452,-80.15654871
12250 South Cleveland Avenue,Fort Myers,FL,33907,26.56444209,-81.87306976
4336 Palm Beach Boulevard,Fort Myers,FL,33905,26.66866703,-81.82603525
2801 Reynolds Drive,Fort Pierce,FL,34945,27.41299237,-80.39403779
405 South Fourth Street,Fort Pierce,FL,34950,27.44380094,-80.32601995
500 Mary Esther Cutoff,Fort Walton Beach,FL,32548,30.42398667,-86.64738027
1231 East University Avenue,Gainesville,FL,32641,29.65182587,-82.30912094
3525 Southwest Archer Road,Gainesville,FL,32608,29.62335044,-82.37599093
3750 NW 13th Street,Gainesville,FL,32609,29.68618772,-82.33921307
Newell Dr & Stadium Rd,Gainesville,FL,32611,29.6486317,-82.34278354
4507 Lake Worth Road,Greenacres,FL,33463,26.61862146,-80.1152223
6712 Forest Hills Blvd,Greenacres,FL,33413,26.6510046,-80.14819903
14405 Monte Vista Road,Groveland,FL,34736,28.5568372,-81.8350348
3850 Gulf Breeze Parkway,Gulf Breeze,FL,32563,30.39049438,-87.06335693
35854 Highway 27,Haines City,FL,33844,28.12170279,-81.63991394
815 W Hallandale Beach Blvd,Hallandale,FL,33009,25.98500627,-80.1601265
8001 NW 95th Street,Hialeah Gardens,FL,33016,25.85985655,-80.32791615
15402 NW 77th Ct,Hialeah,FL,33016,25.91402248,-80.32691614
444 Hialeah Dr,Hialeah,FL,33010,25.82288235,-80.27253891
6725 West 28th Avenue,Hialeah,FL,33016,25.88336571,-80.33947673
811 West 49th Street,Hialeah,FL,33012,25.86675905,-80.29951087
2039 US Hwy19,Holiday,FL,34691,28.18918871,-82.7401109
5951 Sheridan Street,Hollywood,FL,33021,26.03230319,-80.20728716
30010 S. Federal Hwy,Homestead,FL,33033,25.48779345,-80.45810118
630 N. 15th Street,Immokalee,FL,34142,26.42699278,-81.43361291
"1110 Highway 41, North",Inverness,FL,34450,28.83785202,-82.34210109
1007 Lane Ave S,Jacksonville,FL,32205,30.30731912,-81.75182557
10770 Beach Blvd,Jacksonville,FL,32246,30.28662343,-81.53761892
1146 Dunn Ave,Jacksonville,FL,32218,30.42977439,-81.66485068
1909 N. Main Street,Jacksonville,FL,32206,30.34708786,-81.6533898
2258 Edgewood Ave. W,Jacksonville,FL,32209,30.37875983,-81.69858845
3930 University Blvd W,Jacksonville,FL,32217,30.26341885,-81.62256367
4201 Oldfield Crossing Drive,Jacksonville,FL,32223,30.16673265,-81.60301268
4495 Roosevelt Blvd,Jacksonville,FL,32210,30.28065057,-81.7200226
7276 103rd Street,Jacksonville,FL,32210,30.24819158,-81.76660813
8003 Merrill Rd,Jacksonville,FL,32277,30.35242461,-81.56216403
8033 Normandy Blvd,Jacksonville,FL,32221,30.2921538,-81.78264317
8761 Baymeadows Rd,Jacksonville,FL,32256,30.2210003,-81.57510245
9551 Regency Square Blvd North,Jacksonville,FL,32225,30.32994629,-81.54961778
3315 N.W. Federal Highway,Jensen Beach,FL,34957,27.24534919,-80.27092822
6700 W. Indiantown Rd,Jupiter,FL,33458,26.93429372,-80.13792562
1130 W. Osceola Pkwy,Kissimmee,FL,34741,28.34137633,-81.41423443
1907 W. Irlo Bronson Hwy,Kissimmee,FL,34741,28.30460809,-81.42381534
1924 E Irlo Bronson Memorial Hwy,Kissimmee,FL,34744,28.2929051,-81.36496017
1978 E. Osceola Parkway,Kissimmee,FL,34743,28.34478012,-81.36435418
3185 S. John Young Parkway,Kissimmee,FL,34746,28.26329059,-81.43258376
5680 W US Highway 192,Kissimmee,FL,34746,28.33244521,-81.5127949
1005 Bichara Blvd,Lady Lake,FL,32159,28.93903528,-81.94409679
313 S.W. Baya Drive,Lake City,FL,32025,30.18433863,-82.64064393
3890 Lake Emma Road,Lake Mary,FL,32746,28.7552016,-81.35797718
885 U.S. Highway 60 West,Lake Wales,FL,33853,27.89886288,-81.60485631
3025 S. Florida Avenue,Lakeland,FL,33803,28.00778567,-81.95711512
"3630 U.S. Highway 98, N",Lakeland,FL,33809,28.08896504,-81.97519849
5204 S. Florida Avenue,Lakeland,FL,33813,27.97273294,-81.96128863
727 E. Memorial Boulevard,Lakeland,FL,33801,28.05490261,-81.95002618
21617 Village Lakes Shopping Center,Land O' Lakes,FL,34639,28.18977881,-82.45890725
1226 West Lantana,Lantana,FL,33462,26.5870203,-80.06387262
13677 Walsingham Road,Largo,FL,33774,27.8805214,-82.82782523
3298 N State Road 7,Lauderdale Lakes,FL,33319,26.16612585,-80.20297782
700 North 14th Street,Leesburg,FL,34748,28.81768498,-81.88739642
823 South Ohio Avenue,Live Oak,FL,32064,30.28904022,-82.98763904
2209 So. Hwy. 77,Lynn Haven,FL,32444,30.22394436,-85.6491297
1480 S. 6th Street,MacClenny,FL,32063,30.26306707,-82.12295223
6501 Overseas Highway,Marathon,FL,33050,24.71842852,-81.06704985
2446 N. State Road 7,Margate,FL,33063,26.25858241,-80.20135501
4337 Lafayette Street,Marianna,FL,32446,30.77603176,-85.23440996
3000 Lake Washington Road,Melbourne,FL,32934,28.14672956,-80.67302212
17701 NW 27th Avenue,Miami Gardens,FL,33056,25.93572658,-80.24493962
4800 NW 183rd Street,Miami Gardens,FL,33055,25.93954601,-80.27897402
10725 NW 41st Street,Miami,FL,33178,25.81176883,-80.37071819
11585 Quail Roost Drive,Miami,FL,33157,25.59226044,-80.37919659
11975 SW 152nd Street,Miami,FL,33177,25.62724422,-80.38635117
12566 SW 120th St,Miami,FL,33186,25.65647721,-80.39663349
13200 SW 8th St,Miami,FL,33184,25.76076598,-80.41064511
14081 SW 88th St,Miami,FL,33186,25.68530799,-80.42153078
14790 SW 56th St,Miami,FL,33185,25.71379183,-80.43244493
19775 S Dixie Hwy,Miami,FL,33157,25.58480877,-80.36345525
2375 SW 8th Street,Miami,FL,33135,25.76566447,-80.23472452
3515 N.W. Seventh Avenue,Miami,FL,33127,25.80970987,-80.20691458
3535 SW 22nd Street,Miami,FL,33145,25.75010515,-80.25056431
3855 NW 27th Avenue,Miami,FL,33142,25.81138811,-80.24017786
4200 NW 21 Street,Miami,FL,33122,25.79664889,-80.27502365
5826 Bird Road,Miami,FL,33155,25.73381168,-80.28928443
6195 NW 27th Ave,Miami,FL,33142,25.83083646,-80.24096817
701 NW 119th St,Miami,FL,33168,25.88383734,-80.21094212
720 NW 37th Avenue,Miami,FL,33125,25.78014091,-80.25581491
7360 SW 117th Ave,Miami,FL,33183,25.69802409,-80.3822426
8363 W Flagler Street,Miami,FL,33144,25.76983029,-80.33027734
8760 Coral Way,Miami,FL,33165,25.74747753,-80.33686639
949 SW 107th Ave,Miami,FL,33174,25.75973009,-80.36819574
9690 S Dixie Hwy,Miami,FL,33156,25.68100163,-80.31697848
2693 Blanding Blvd,Middleburg,FL,32068,30.06184586,-81.87533794
3650 Utopia Drive,Miramar,FL,33023,25.97515263,-80.24593551
6090 Miramar Parkway,Miramar,FL,33023,25.98435382,-80.20854209
16800 W. New Hwy 441,Mount Dora,FL,32757,28.82123074,-81.67854968
12225 Collier Boulevard,Naples,FL,34116,26.19361178,-81.68727039
8688 Navarre Parkway,Navarre,FL,32566,30.40187184,-86.85987825
626 Atlantic Boulevard,Neptune Beach,FL,32266,30.32445443,-81.4040502
4312 U.S. Highway 19,New Port Richey,FL,34652,28.22160641,-82.73395906
8242 Little Road,New Port Richey,FL,34654,28.27681302,-82.67414536
2000 West State Road 44,New Smyrna Beach,FL,32168,29.01340236,-80.9484109
205 W. John Sims Parkway,Niceville,FL,32578,30.52278713,-86.49665502
13160 Highway 41 North,North Fort Myers,FL,33903,26.66021032,-81.88350104
7107 W McNab Road,North Lauderdale,FL,33068,26.20961339,-80.22039388
13801 North East Biscayne Boulevard,North Miami Beach,FL,33181,25.90320759,-80.15938456
16215 Northeast 15th Avenue,North Miami Beach,FL,33162,25.92473332,-80.16970973
20285 Northwest 2nd Avenue,North Miami Beach,FL,33169,25.96088183,-80.20563936
2561 Northlake Blvd,North Palm Beach,FL,33403,26.80814052,-80.0746226
2101 W Oakland Blvd,Oakland Park,FL,33311,26.16569623,-80.17081745
3810 SW College Rd,Ocala,FL,34474,29.14751698,-82.18663705
Mile Post 263,Ocoee,FL,34761,28.5170599,-81.5033719
3387 Highway 441 South,Okeechobee,FL,34974,27.21308962,-80.82999231
Mile Marker 184,Okeechobee,FL,34972,27.60424767,-80.82529867
914 Saxon Blvd,Orange City,FL,32763,28.91109157,-81.28819159
17 Blanding Blvd,Orange Park,FL,32073,30.18834795,-81.7391364
10825 E Colonial Dr,Orlando,FL,32817,28.5693073,-81.22797663
11302 S Orange Blossom Trl,Orlando,FL,32837,28.40151777,-81.40475878
12195 S. Apopka Vineland Rd,Orlando,FL,32836,28.38808759,-81.50625067
2882 N Hiawassee Rd,Orlando,FL,32818,28.58013533,-81.47616417
3009 W Colonial Drive,Orlando,FL,32808,28.55296904,-81.41592818
426 East Michigan Street,Orlando,FL,32806,28.51290187,-81.37091315
436 S Semoran Blvd,Orlando,FL,32807,28.53818198,-81.31068415
502 S Alafaya Trail,Orlando,FL,32828,28.53888708,-81.20793228
5173 Kirkman Road,Orlando,FL,32819,28.4869152,-81.4586853
5200 S John Young Parkway,Orlando,FL,32839,28.48817608,-81.41792542
5780 Central Florida Parkway,Orlando,FL,32821,28.40734633,-81.4536549
5808 Cinderlane Pkwy,Orlando,FL,32810,28.61085163,-81.42793284
6041 S. Goldenrod Rd,Orlando,FL,32822,28.47552358,-81.28951281
6217 International Rd,Orlando,FL,32819,28.46233186,-81.46488938
6607 West Colonial Drive,Orlando,FL,32818,28.55228412,-81.47325957
294 West Granada Avenue,Ormond Beach,FL,32174,29.2824194,-81.06325006
4683 Highway 90,Pace,FL,32571,30.60300929,-87.12794
409 South State Road 19,Palatka,FL,32177,29.64454785,-81.67484665
"4901 Babcock Street, N.E",Palm Bay,FL,32905,28.02887382,-80.62187856
3 Old Kings Road,Palm Coast,FL,32137,29.55650948,-81.2127729
33420 US Highway 19 North,Palm Harbor,FL,34684,28.07577708,-82.73922833
427 S. Tyndall Parkway,Panama City,FL,32404,30.1394493,-85.59105672
15821 Pines Blvd,Pembroke Pines,FL,33027,26.0078454,-80.3588778
1836 University Drive,Pembroke Pines,FL,33024,26.0253523,-80.24888755
9951 Pines Blvd,Pembroke Pines,FL,33024,26.00848101,-80.27733671
5 W. Nine Mile Road,Pensacola,FL,32534,30.53307452,-87.27464724
5080 N. 9th Ave,Pensacola,FL,32504,30.47300781,-87.21176395
6000 Mobile Highway,Pensacola,FL,32526,30.46201127,-87.30125782
2100 South Byron Butler,Perry,FL,32348,30.09826626,-83.58309916
6595 Park Boulevard,Pinellas Park,FL,33781,27.83927013,-82.72797571
2305 James L Redman Parkway,Plant City,FL,33563,27.9907796,-82.12169237
8221 West Broward Blvd,Plantation,FL,33324,26.12098588,-80.2589669
4466 Pleasant Hill Road,Poinciana,FL,34758,28.15675262,-81.44015923
2150 W. Atlantic Blvd,Pompano Beach,FL,33069,26.23011948,-80.15353056
2292 N. Federal Hwy,Pompano Beach,FL,33062,26.25858862,-80.09971889
341 W Atlantic Blvd,Pompano Beach,FL,33060,26.23175795,-80.12812747
4635 Tamiami Trail,Port Charlotte,FL,33980,26.96124483,-82.07048719
1035 Dunlawton Avenue,Port Orange,FL,32127,29.12690948,-81.00660601
11818 U.S. Highway 19,Port Richey,FL,34668,28.3293803,-82.69904334
9406 U.S. Highway 19,Port Richey,FL,34668,28.29459395,-82.70859249
"6105 No U.S. Highway, 1",Port Saint John,FL,32927,28.47150712,-80.76683466
1641 N.W. Saint Lucie West Boulevard,Port Saint Lucie,FL,34986,27.31277687,-80.39911353
246 S.W. Port St. Lucie Boulevard,Port Saint Lucie,FL,34984,27.27414714,-80.35284582
1307 W. Jefferson St,Quincy,FL,32351,30.58780767,-84.59307484
7007 US 301 S,Riverview,FL,33578,27.87896266,-82.32727169
1581 W. Blue Heron Blvd,Riviera Beach,FL,33404,26.78103445,-80.0806219
1842 Rockledge Blvd,Rockledge,FL,32955,28.32864234,-80.72066816
667 Royal Palm Beach Blvd,Royal Palm Beach,FL,33411,26.68233285,-80.23028093
3102 College Avenue East,Ruskin,FL,33570,27.71318261,-82.39320201
"1805 U.S. Highway 1, S",Saint Augustine,FL,32084,29.86817958,-81.32334611
2515 County Road 208,Saint Augustine,FL,32084,29.91825526,-81.41564292
2200 Old Canoe Creek Rd,Saint Cloud,FL,34772,28.19797466,-81.29473937
2733 13th St,Saint Cloud,FL,34769,28.24587957,-81.30016685
2430 34th St S,Saint Petersburg,FL,33711,27.74619368,-82.67917259
"6300 Ninth Street, N",Saint Petersburg,FL,33702,27.82939988,-82.64714441
"770 34th Street, N",Saint Petersburg,FL,33713,27.77991485,-82.67953722
3601 S. Orlando Dr,Sanford,FL,32773,28.76212641,-81.28365461
3780 Bee Ridge Road,Sarasota,FL,34233,27.29866628,-82.4938029
6301 15th Street E,Sarasota,FL,34243,27.42885175,-82.54661959
1809 U.S. Highway 1,Sebastian,FL,32958,27.82838492,-80.47826872
"960 U.S. Highway 27, N",Sebring,FL,33870,27.49186819,-81.48443146
803 Dr. Martin Luther King Boulevard,Seffner,FL,33584,27.98170282,-82.28790024
640 South Walnut,Starke,FL,32091,29.939216,-82.1114637
2419 SE Federal Highway,Stuart,FL,34994,27.17669312,-80.23531516
2491 North University Dr,Sunrise,FL,33322,26.15529285,-80.25737135
3300 N. Nob Hill Road,Sunrise,FL,33351,26.16815285,-80.28456559
2828 North Monroe Street,Tallahassee,FL,32303,30.48055845,-84.30372498
3008 Apalachee Parkway,Tallahassee,FL,32301,30.42746975,-84.22735615
4650 W. Tennessee Street,Tallahassee,FL,32304,30.45907908,-84.36041685
7556 NW 58th Street,Tamarac,FL,33321,26.19688982,-80.25175084
1605 W. Kennedy Boulevard,Tampa,FL,33606,27.9447736,-82.47569612
1733 N. 50th Street,Tampa,FL,33619,27.96154555,-82.40167255
2212 E. Fowler Avenue,Tampa,FL,33612,28.05465169,-82.43207922
3202 E. Hillsborough Avenue,Tampa,FL,33610,27.99619313,-82.4237488
3509 E. Busch Boulevard,Tampa,FL,33612,28.03246297,-82.42016305
4302 N. Armenia Avenue,Tampa,FL,33607,27.98054573,-82.48477672
4402 W. Gandy Boulevard,Tampa,FL,33611,27.89332003,-82.51898513
5367 Ehrlich Road,Tampa,FL,33625,28.08299581,-82.54258659
7605 W. Hillsborough Avenue,Tampa,FL,33615,27.99673171,-82.5648572
8201 N. Florida Avenue,Tampa,FL,33604,28.0229527,-82.45942085
8550 N. Dale Mabry Highway,Tampa,FL,33614,28.02887094,-82.50512502
12 N. Washington Avenue,Titusville,FL,32796,28.61566878,-80.80757831
2218 East Bloomingdale Avenue,Valrico,FL,33596,27.89376343,-82.24581522
4040 20th Street,Vero Beach,FL,32960,27.63862078,-80.4273738
899 S. Sixth Avenue,Wauchula,FL,33873,27.53781311,-81.80940955
2525 South Military Trail,West Palm Beach,FL,33415,26.64027638,-80.11279623
3045 North Military Trail,West Palm Beach,FL,33409,26.72194936,-80.11075
4720 Broadway,West Palm Beach,FL,33407,26.75400372,-80.05598293
980 North Military Trail,West Palm Beach,FL,33415,26.69114622,-80.11143069
Mile Post 94,West Palm Beach,FL,33414,26.633917,-80.174885
"Mile Post 299, Florida Turnpike",Wildwood,FL,34785,28.78875073,-81.98695648
13320 W. Colonial Dr,Winter Garden,FL,34787,28.55090744,-81.58141714
3300 Daniels Road,Winter Garden,FL,34787,28.52192367,-81.58771534
"401 Cypress Gardens Boulevard, S.E",Winter Haven,FL,33880,28.00411293,-81.72308423
4250 Aloma Ave,Winter Park,FL,32792,28.61149008,-81.27952005
76106 Sidney Place,Yulee,FL,32097,30.62017906,-81.6465386
5506 North Gall Boulevard,Zephyrhills,FL,33542,28.23750218,-82.18374331
5040 Cherokee Street,Acworth,GA,30101,34.0751928,-84.67685304
6760 Highway 92,Acworth,GA,30102,34.08766324,-84.57576916
1723 E Oglethorpe Blvd,Albany,GA,31705,31.57097858,-84.10445161
2727 Dawson Rd,Albany,GA,31707,31.62074577,-84.22651202
400 Oglethorpe Avenue,Albany,GA,31701,31.57525445,-84.15640501
502 S. Pierce Street,Alma,GA,31510,31.53813029,-82.46280644
10960 State Bridge Road,Alpharetta,GA,30022,34.04749665,-84.22388851
5150 Windward Parkway,Alpharetta,GA,30004,34.09294522,-84.27739453
102 Tripp St,Americus,GA,31709,32.07288872,-84.21751783
710 E. Washington Avenue,Ashburn,GA,31714,31.71015155,-83.64153045
2150 Barnett Shoals Road,Athens,GA,30605,33.92159544,-83.34162674
3196 Atlanta Highway,Athens,GA,30606,33.9404156,-83.45068681
23 Joseph E Lowery Blvd. SW,Atlanta,GA,30314,33.75412941,-84.41766155
2475 Bouldercrest Rd. SE,Atlanta,GA,30316,33.68874379,-84.31260053
2840 Greenbriar Pkwy. SW,Atlanta,GA,30331,33.68764448,-84.49005354
3510 Cascade Rd. SW,Atlanta,GA,30331,33.72294524,-84.504074
3604 Bakers Ferry Rd SW,Atlanta,GA,30331,33.75930012,-84.50580703
3901 Buford Hwy NE,Atlanta,GA,30329,33.85724754,-84.31260863
5245 Old National Hwy,Atlanta,GA,30349,33.61260968,-84.47223006
1816 Walton Way,Augusta,GA,30904,33.47554476,-81.99829084
2029 Windsor Springs Road,Augusta,GA,30906,33.40903509,-82.02589046
3425 Wrightsboro Road,Augusta,GA,30909,33.46797728,-82.07767223
1015 E. Shotwell St,Bainbridge,GA,39819,30.90397127,-84.56281809
400 East Parker Street,Baxley,GA,31513,31.77692063,-82.3431579
369 Bracket Way,Blairsville,GA,30512,34.87253132,-83.9660589
155 U.S. Highway 27 Bypass,Bremen,GA,30110,33.69350858,-85.15340988
400 Warren Mason Highway,Brunswick,GA,31520,31.21860366,-81.51998548
4368 Highway 20,Buford,GA,30518,34.09507201,-84.01183754
723 Highway 53,Calhoun,GA,30701,34.47250179,-84.92236566
1855 Marietta Highway,Canton,GA,30114,34.22184099,-84.50482201
3750 Sixes Road,Canton,GA,30114,34.17730214,-84.54941341
6113 Hickory Flat Highway,Canton,GA,30114,34.17752601,-84.42253805
575 Bankhead Hwy,Carrollton,GA,30117,33.58684919,-85.057947
255 Cherokee Place,Cartersville,GA,30121,34.17190323,-84.78246128
1043 North Third Avenue,Chatsworth,GA,30705,34.78438086,-84.77099502
1801 South Lumpkin Road,Columbus,GA,31903,32.42051563,-84.95059257
1934 Manchester Expressway,Columbus,GA,31904,32.5068835,-84.96330599
3100 Buena Vista Road,Columbus,GA,31906,32.45445946,-84.944048
5615 Milgen Road,Columbus,GA,31907,32.52180526,-84.88935472
6760 Veterans Parkway,Columbus,GA,31909,32.54250344,-84.9540427
1675 Highway 138 SE,Conyers,GA,30013,33.64611928,-84.01381124
2430 Salem Road SE,Conyers,GA,30013,33.62529175,-83.97662417
1504 E. 16th Avenue,Cordele,GA,31015,31.96122832,-83.75930606
1467 Highway 441 Bypass,Cornelia,GA,30531,34.50994487,-83.5452943
6103 Highway 278 NW,Covington,GA,30014,33.60518054,-83.87272535
695 Atlanta Rd,Cumming,GA,30040,34.18731895,-84.14321849
555 Dacula Road,Dacula,GA,30019,33.99991071,-83.90868264
1245 Merchants Drive,Dallas,GA,30132,33.91080649,-84.80067312
1519 W. Walnut Ave,Dalton,GA,30720,34.76071897,-84.9984632
13039 GA Highway 251,Darien,GA,31305,31.39917647,-81.45115542
2532 Wesley Chapel Rd,Decatur,GA,30035,33.71447016,-84.21576778
3555 Flat Shoals Rd,Decatur,GA,30034,33.7040068,-84.27102544
3283 Northcrest Rd,Doraville,GA,30340,33.88571972,-84.24792108
1002 North Peterson Street,Douglas,GA,31533,31.51858933,-82.85066089
"Highway 5, Market Square Shopping Ctr",Douglasville,GA,30135,33.72476524,-84.7632528
1630 Veterans Boulevard,Dublin,GA,31021,32.53621968,-82.93099089
2182 Highway 441 South,Dublin,GA,31021,32.48964072,-82.93354067
2080 Pleasant Hill Road,Duluth,GA,30096,33.95657736,-84.13278849
1395 Virginia Ave,East Point,GA,30344,33.65921698,-84.43472478
1020 Indian Drive,Eastman,GA,31023,32.18084765,-83.18003651
253 Elbert Street,Elberton,GA,30635,34.10881193,-82.86029271
205 Highway 314,Fayetteville,GA,30214,33.46746323,-84.44963921
809 South Grant Street,Fitzgerald,GA,31750,31.70590724,-83.25295911
4845 Jonesboro Rd,Forest Park,GA,30297,33.62021155,-84.35207431
663 Battlefield Parkway,Fort Oglethorpe,GA,30742,34.95442233,-85.25364645
210 N. Camilla Boulevard,Fort Valley,GA,31030,32.55675261,-83.88465748
1904 Browns Bridge Road,Gainesville,GA,30501,34.28365507,-83.84943478
4402 Augusta Road,Garden City,GA,31408,32.10544712,-81.15213026
1855 Grayson Highway,Grayson,GA,30017,33.90003996,-83.96185504
1410 North Expressway,Griffin,GA,30223,33.27002958,-84.29017458
202 Hill Street,Griffin,GA,30224,33.24664616,-84.26371376
4040 Gateway Boulevard,Grovetown,GA,30813,33.47910305,-82.19602736
11325 Tara Blvd,Hampton,GA,30228,33.44613975,-84.32425732
4106 Windsor Spring Rd,Hephzibah,GA,30815,33.3756183,-82.07254291
733 E. Oglethorpe Boulevard,Hinesville,GA,31313,31.85168867,-81.58216877
561 E Third Street,Jackson,GA,30233,33.29454268,-83.96045212
4821 US Hwy 129 North,Jefferson,GA,30549,34.15192462,-83.64184777
995 S. First Street,Jesup,GA,31545,31.60435687,-81.90683575
8687 Tara Blvd,Jonesboro,GA,30236,33.51819301,-84.36382717
1970 N Cobb Parkway,Kennesaw,GA,30152,34.00085033,-84.59185545
1364 East Boone Avenue,Kingsland,GA,31548,30.78836962,-81.65325689
305 New Franklin Road,Lagrange,GA,30240,33.04874176,-85.02885714
4776 Sugarloaf Parkway,Lawrenceville,GA,30044,33.95194368,-84.05063432
675 Georgia Highway 120,Lawrenceville,GA,30045,33.96609031,-84.01003875
928 Buford Drive,Lawrenceville,GA,30043,33.98752113,-83.98454478
664 Thornton Road,Lithia Springs,GA,30122,33.78696155,-84.61689959
2848 Panola Road,Lithonia,GA,30058,33.70487076,-84.16973688
313 Tanger Blvd,Locust Grove,GA,30248,33.35209983,-84.12122683
4065 Highway 78,Loganville,GA,30052,33.84627801,-83.91188136
"981 Veterans Memorial Highway, S.W",Mableton,GA,30126,33.81882183,-84.58254927
190 Tom Hill Sr. Boulevard,Macon,GA,31210,32.89872159,-83.6891277
3837 Bloomfield Road,Macon,GA,31206,32.81875127,-83.69751731
4030 Pio Nono Avenue,Macon,GA,31206,32.79166619,-83.66840294
4475 Forsyth Road,Macon,GA,31210,32.87040149,-83.70184252
844 Shurling Drive,Macon,GA,31211,32.85965787,-83.61075629
1971 Eatonton Highway,Madison,GA,30650,33.55862135,-83.476245
1130 Powder Spring Road,Marietta,GA,30064,33.92562322,-84.57314296
12 Cobb Pkwy. N,Marietta,GA,30062,33.95158497,-84.52080981
2540 Delk Rd SE,Marietta,GA,30067,33.92256095,-84.48037819
3480 Ernest W Barrett Pkwy SW,Marietta,GA,30064,33.94470521,-84.62438467
1078 Highway 20-81,McDonough,GA,30253,33.43092475,-84.17852496
1135 South Lewis Street,Metter,GA,30439,32.37743711,-82.06244375
2337 N. Columbia Street,Milledgeville,GA,31061,33.10798482,-83.25371603
1100 West Spring Street,Monroe,GA,30655,33.79295459,-83.73147665
1493 Mount Zion Rd,Morrow,GA,30260,33.57121232,-84.34194362
300 Lane Street,Moultrie,GA,31768,31.17591229,-83.76197749
511 South Davis Street,Nashville,GA,31639,31.20184187,-83.25094697
398 Bullsboro Drive,Newnan,GA,30263,33.39506062,-84.76263074
1635 Indian Trail Rd,Norcross,GA,30093,33.92322894,-84.17287169
4025 Holcomb Bridge Rd,Norcross,GA,30092,33.96712369,-84.25652595
3711 Mundy Mill Rd,Oakwood,GA,30566,34.22997835,-83.86933724
1416 Sam Nunn Boulevard,Perry,GA,31069,32.46944529,-83.74140872
5700 Highway 354,Pine Mountain,GA,31822,32.85228297,-84.84617707
1005 Highway 80 East,Pooler,GA,31322,32.11090716,-81.23494909
4022 Powder Springs Rd SW,Powder Springs,GA,30127,33.85898743,-84.67148628
"4585 US Highway 17, Highway 17 @ I-95",Richmond Hill,GA,31324,31.92412216,-81.3359437
457 S. Columbia Avenue,Rincon,GA,31326,32.27592779,-81.22937627
5387 Alabama Highway,Ringgold,GA,30736,34.91278601,-85.12468959
6892 Highway 85,Riverdale,GA,30274,33.56653533,-84.41225205
130 Felton Drive,Rockmart,GA,30153,34.0104732,-85.04106367
820 Turner McCall Blvd,Rome,GA,30161,34.25949172,-85.16853317
4720 Alabama Rd. NE,Roswell,GA,30075,34.06417755,-84.42327113
676 Holcomb Bridge Rd,Roswell,GA,30076,34.03354904,-84.34148854
727 South Harris,Sandersville,GA,31082,32.96997397,-82.80846684
11502 Abercorn Extension,Savannah,GA,31419,31.98162397,-81.14841032
19 Mersy Way,Savannah,GA,31405,32.04982093,-81.16576004
2610 Skidaway Road,Savannah,GA,31404,32.04240108,-81.06335867
405 W. Gwinnet Street,Savannah,GA,31401,32.06845328,-81.10126021
7705 Waters Avenue,Savannah,GA,31406,32.00200671,-81.10270918
3430 Highway 34E,Sharpsburg,GA,30277,33.40839555,-84.67256915
2637 Cobb Pkwy. SE,Smyrna,GA,30080,33.88909892,-84.47343902
2663 W. Main Street,Snellville,GA,30078,33.85625443,-84.0245507
898 Buckhead Drive,Statesboro,GA,30458,32.43441295,-81.75788564
102 Highway 138 W,Stockbridge,GA,30281,33.55373546,-84.26213737
955 Eagles Landing Parkway,Stockbridge,GA,30281,33.51096099,-84.22323245
5290 Highway 78,Stone Mountain,GA,30087,33.82288229,-84.11350376
5681 Memorial Dr,Stone Mountain,GA,30083,33.80097258,-84.20520181
3277 Lawrenceville Suwanee Rd,Suwanee,GA,30024,34.03590452,-84.05235032
302 South Main Street,Swainsboro,GA,30401,32.5933196,-82.3310786
501 East Franklin Street,Sylvester,GA,31791,31.53037047,-83.83055856
1051 Highway 19 North,Thomaston,GA,30286,32.92348631,-84.33357758
13777 U.S. Highway 19 South,Thomasville,GA,31792,30.83973923,-83.94421871
804 W. Second Street,Tifton,GA,31794,31.45778316,-83.52545195
771 Big A Road,Toccoa,GA,30577,34.5729499,-83.31101819
4295 Lawrenceville Highway,Tucker,GA,30084,33.85463961,-84.20941513
4725 Jonesboro Road,Union City,GA,30291,33.56936316,-84.54120837
1207 North Ashley Street,Valdosta,GA,31601,30.84573344,-83.28027096
1300 N. Saint Augustine Road,Valdosta,GA,31601,30.84251746,-83.32644738
3026 North Ashley Street,Valdosta,GA,31602,30.87320464,-83.29059688
2601 E. First Street,Vidalia,GA,30474,32.20627482,-82.37618545
126 Highway 61,Villa Rica,GA,30180,33.72578521,-84.93966098
409 N. Davis Drive,Warner Robins,GA,31093,32.62768567,-83.61304552
2405 Plant Avenue,Waycross,GA,31501,31.23094359,-82.33223177
600 Hopkins Corner Drive,Waynesboro,GA,30830,33.10486534,-82.02349053
180 W. Athens Street,Winder,GA,30680,33.9951088,-83.73347676
302 North Main Street,Wrens,GA,30833,33.21119636,-82.38611883
98-150 Kaonohi,Aiea,HI,96701,21.38462482,-157.9447915
91-1001 Kaimalie St,Ewa Beach,HI,96706,21.31955552,-158.0154426
91-590 Farrington Highway,Ewa Beach,HI,96706,21.33910035,-158.0776327
111 E. Puainako Road,Hilo,HI,96720,19.69918268,-155.0618511
1124 McCully Street,Honolulu,HI,96826,21.29630307,-157.8298043
1704 N. King Street,Honolulu,HI,96819,21.33116278,-157.8753478
4819 Bougainville Drive,Honolulu,HI,96818,21.34437434,-157.9306281
144 East Wakea Avenue,Kahului,HI,96732,20.8857097,-156.4622209
75-5586 Palani Road,Kailua Kona,HI,96740,19.641665,-155.996413
11 Kainehe Street,Kailua,HI,96734,21.39388053,-157.7455548
45-480 Kaneohe Bay Dr,Kaneohe,HI,96744,21.40278441,-157.798661
3229 Kuhio Highway,Lihue,HI,96766,21.98098341,-159.3677105
85-054 Kaupuni,Waianae,HI,96792,21.44815711,-158.1895956
87-1978 Farrington Highway,Waianae,HI,96792,21.38844549,-158.1528784
94-801 Lumiaina Street,Waipahu,HI,96797,21.40009992,-158.0093995
2639 Adventureland Dr,Altoona,IA,50009,41.65857789,-93.49552363
918 E 1st Street,Ankeny,IA,50021,41.73195842,-93.58315787
905 W. Seventh Street,Atlantic,IA,50022,41.40197787,-95.02782564
345 North Roosevelt Road,Burlington,IA,52601,40.81094705,-91.14164023
6104 University Avenue,Cedar Falls,IA,50613,42.51316497,-92.43124663
1334 Edgewood Road South West,Cedar Rapids,IA,52404,41.96490797,-91.71616742
3927 Center Point Road,Cedar Rapids,IA,52402,42.02006274,-91.66503428
306 East Maple,Centerville,IA,52544,40.7324626,-92.87184902
924 N. 2nd Street,Clinton,IA,52732,41.85456418,-90.18619796
11406 Forest Avenue,Clive,IA,50325,41.6014634,-93.77302359
1751 Madison Avenue,Council Bluffs,IA,51503,41.2441892,-95.82716002
2810 W. Broadway,Council Bluffs,IA,51501,41.26231906,-95.88913304
1012 West Kimberly,Davenport,IA,52806,41.56019997,-90.58538647
208 W. Locust Street,Davenport,IA,52803,41.53833968,-90.57588696
3843 Elmore Ave,Davenport,IA,52807,41.55712446,-90.52710047
2517 Hubbell Avenue,Des Moines,IA,50317,41.60840035,-93.57001845
4005 Merle Hay Road,Des Moines,IA,50310,41.63318445,-93.69766961
4815 Southwest 9th Street,Des Moines,IA,50315,41.53992257,-93.62563984
902 East Euclid Avenue,Des Moines,IA,50316,41.6277889,-93.60554886
1725 John F. Kennedy Road,Dubuque,IA,52002,42.50118442,-90.7213013
1957 Central Avenue,Dubuque,IA,52001,42.51093311,-90.66964753
"3057 First Avenue, S",Fort Dodge,IA,50501,42.50525835,-94.15342443
1421 Avenue H,Fort Madison,IA,52627,40.63019998,-91.32362671
130 Highway 1 West,Iowa City,IA,52246,41.64760806,-91.54223918
3010 Main Street,Keokuk,IA,52632,40.4144489,-91.40292535
1925 Seventh Avenue,Marion,IA,52302,42.03321623,-91.59049997
3007 S Center Street,Marshalltown,IA,50158,42.00910651,-92.91290586
1615 4th Street Southwest,Mason City,IA,50401,43.14820706,-93.22558601
701 Wohlleber Drive,Mount Pleasant,IA,52641,40.97450357,-91.5392649
2515 Park Avenue,Muscatine,IA,52761,41.45179487,-91.03008222
"1300 West 18th Street, South",Newton,IA,50208,41.68713462,-93.07671123
107 Ariel Circle,Osceola,IA,50213,41.02493432,-93.79700792
408 A Ave W,Oskaloosa,IA,52577,41.29614684,-92.649193
1132 N. Quincy Avenue,Ottumwa,IA,52501,41.01725675,-92.43832301
400 Senate Avenue,Red Oak,IA,51566,41.02626355,-95.22664418
1500 Hamilton Boulevard,Sioux City,IA,51103,42.50642398,-96.41649849
3001 Singing Hills Blvd,Sioux City,IA,51106,42.43567493,-96.3681715
921 South Grand Avenue,Spencer,IA,51301,43.12814584,-95.14390178
3115 Kimball,Waterloo,IA,50702,42.46816451,-92.3568433
13375 W. Chinden Blvd,Boise,ID,83713,43.66284399,-116.3525299
3545 South Federal Way,Boise,ID,83705,43.57048104,-116.1862943
8440 West Overland Road,Boise,ID,83709,43.59074533,-116.2866996
243 Overland Avenue,Burley,ID,83318,42.5508966,-113.7931645
5102 E. Cleveland Boulevard,Caldwell,ID,83607,43.63334642,-116.6445527
279 West Orchard,Hayden,ID,83835,47.75546141,-116.7897758
680 East 17th Street,Idaho Falls,ID,83404,43.48231286,-112.0196502
2339 Thain Grade Road,Lewiston,ID,83501,46.39658974,-116.9976167
677 S. Main Street,Meridian,ID,83642,43.59861129,-116.3926229
1400 South Blaine Street,Moscow,ID,83843,46.72228331,-116.9854446
1060 Highway 20,Mountain Home,ID,83647,43.14183161,-115.6623412
145 Maine Avenue E,Nampa,ID,83686,43.55060883,-116.5726678
670 Yellowstone Avenue,Pocatello,ID,83201,42.88694524,-112.4513266
325 Ross Point Road,Post Falls,ID,83854,47.70857775,-116.8954781
"1549 Blue Lakes Boulevard, North",Twin Falls,ID,83301,42.58986233,-114.4603133
415 South Randall Road,Algonquin,IL,60102,42.17195993,-88.33433302
2994 Homer Adams Parkway,Alton,IL,62002,38.91504179,-90.14062444
1195 E. Vienna Street,Anna,IL,62906,37.46211147,-89.23013812
325 W. IL Route 173,Antioch,IL,60002,42.46629749,-88.06999877
1350 E New York St,Aurora,IL,60505,41.75680686,-88.28165606
136 Fox Valley Center,Aurora,IL,60504,41.75977081,-88.20802738
2240 W Galena Blvd,Aurora,IL,60506,41.76489312,-88.37211712
960 S State Route 59,Bartlett,IL,60103,41.97198702,-88.20712437
5601 South Washington,Bartonville,IL,61607,40.65282071,-89.64832114
4914 W. Main Street,Belleville,IL,62226,38.54375517,-90.02842956
645 Carlyle Avenue,Belleville,IL,62221,38.51651007,-89.95650854
1160 North State Street,Belvidere,IL,61008,42.26820702,-88.85279587
634 West Main Street,Benton,IL,62812,37.99675165,-88.92853649
6200 Cermak Rd,Berwyn,IL,60402,41.85087293,-87.77885211
434 W Bethalto Dr,Bethalto,IL,62010,38.90096862,-90.04934312
1706 West Market,Bloomington,IL,61701,40.483489,-89.01903569
501 Prospect,Bloomington,IL,61704,40.48426215,-88.94939345
118 South Kennedy,Bradley,IL,60915,41.14319386,-87.87615332
8940 South Harlem Avenue,Bridgeview,IL,60455,41.72841119,-87.79903523
1691 Camp Jackson Road,Cahokia,IL,62206,38.55283088,-90.16469137
297 S. Schmale Road,Carol Stream,IL,60188,41.89582929,-88.10204251
2736 Progress Ave,Caseyville,IL,62232,38.6176889,-90.0446465
2201 West Springfield Avenue,Champaign,IL,61821,40.11282347,-88.28438468
2310 Lincoln Avenue,Charleston,IL,61920,39.48685154,-88.15448761
3029 South Chicago Road,Chicago Heights,IL,60411,41.48261663,-87.63791784
444 Chicago Ridge Mall,Chicago Ridge,IL,60415,41.71419485,-87.77993775
100 W. Randolph,Chicago,IL,60601,41.88451144,-87.63127786
10200 S. Halsted Street,Chicago,IL,60628,41.70856996,-87.64301306
10421 South Western Avenue,Chicago,IL,60643,41.70369433,-87.68135921
10556 South Indianapolis,Chicago,IL,60617,41.70331273,-87.52524499
1144 S. Western Avenue,Chicago,IL,60612,41.86734475,-87.68618812
1617 E. 95th Street,Chicago,IL,60617,41.72223296,-87.58396558
2807 W Irving Park Rd,Chicago,IL,60618,41.95388191,-87.69877248
300 East 35th Street,Chicago,IL,60616,41.83115875,-87.6190833
3357 W. Peterson Avenue,Chicago,IL,60659,41.9902129,-87.71408021
3536 North Cicero Avenue,Chicago,IL,60641,41.94559562,-87.74719119
3696 S. Archer Avenue,Chicago,IL,60609,41.82674022,-87.68380402
3927 N Harlem Ave,Chicago,IL,60634,41.95144354,-87.80714023
4200 W 55th St,Chicago,IL,60632,41.79324144,-87.7282756
4715 W. Fullerton Ave,Chicago,IL,60639,41.92418951,-87.74478994
4804 N. Sheridan Road,Chicago,IL,60640,41.96939937,-87.6548031
5230 W. Madison Street,Chicago,IL,60644,41.88046263,-87.75652476
5852 S. Western Avenue,Chicago,IL,60636,41.78692188,-87.6839934
6034 W. North Avenue,Chicago,IL,60639,41.90934709,-87.77666192
6040 S Archer Ave,Chicago,IL,60638,41.79498444,-87.76776335
6732 North Western Avenue,Chicago,IL,60645,42.00417986,-87.69017707
7445 S Stony Island Ave,Chicago,IL,60649,41.75910313,-87.58564361
7508 S. Lafayette Avenue,Chicago,IL,60620,41.75808472,-87.62706937
8307 S. King Drive,Chicago,IL,60619,41.74336914,-87.61466143
2823 S Cicero Ave,Cicero,IL,60804,41.8412499,-87.74375795
80 Clinton Plaza,Clinton,IL,61727,40.14699439,-88.97662743
1700 N. Vandalia,Collinsville,IL,62234,38.68975441,-89.97288545
6280 Northwest Highway,Crystal Lake,IL,60014,42.2263077,-88.32119163
1310 East Pershing Road,Decatur,IL,62526,39.87724583,-88.93938339
1195 E. Oakton Street,Des Plaines,IL,60018,42.02375159,-87.89586851
2780 Division Street,Diamond,IL,60416,41.2887451,-88.24388427
737 North Galena,Dixon,IL,61021,41.85378416,-89.4873328
1043 East Sibley Boulevard,Dolton,IL,60419,41.62252351,-87.59128922
1450 75th St,Downers Grove,IL,60516,41.75119255,-88.01740632
1170 42nd Avenue,East Moline,IL,61244,41.48951591,-90.43503574
1304 Avenue Of Mid-America,Effingham,IL,62401,39.13933448,-88.5649706
294 South Randall Road,Elgin,IL,60123,42.0280704,-88.33858029
465 Dundee Ave,Elgin,IL,60120,42.04565362,-88.27660026
872 North York Road,Elmhurst,IL,60126,41.92636276,-87.93983832
3141 Mannheim,Franklin Park,IL,60131,41.93509965,-87.88474629
420 N. Harlem Ave,Freeport,IL,61032,42.3013573,-89.63953707
1017 North Henderson,Galesburg,IL,61401,40.95937467,-90.38309656
1612 E. Main Street,Galesburg,IL,61401,40.94731576,-90.34498093
3202 S State Route 159,Glen Carbon,IL,62034,38.7779192,-89.95373549
370 Roosevelt Road,Glen Ellyn,IL,60137,41.85937749,-88.07374908
1510 Johnson Road,Granite City,IL,62040,38.72298253,-90.12179356
1607 South Route 127,Greenville,IL,62246,38.8776297,-89.39069518
1504 Nations Drive,Gurnee,IL,60031,42.38020414,-87.94104228
514 South Commercial,Harrisburg,IL,62946,37.73113412,-88.53438289
3300 West 183rd Street,Hazel Crest,IL,60429,41.55726243,-87.69626666
1500 South Park Avenue,Herrin,IL,62948,37.78924448,-89.02768213
1305 Mercantile Drive,Highland,IL,62249,38.74899217,-89.67615856
1030 N Roselle Rd,Hoffman Estates,IL,60169,42.0467977,-88.07988998
17505 South Halsted Street,Homewood,IL,60430,41.57184098,-87.63529082
244 West Morton Avenue,Jacksonville,IL,62650,39.72329889,-90.23282924
116 N Larkin Avenue,Joliet,IL,60435,41.52552335,-88.12460137
3340 Mall Loop Dr,Joliet,IL,60431,41.5793357,-88.1660909
145 3rd Street,La Salle,IL,61301,41.32975363,-89.10295561
13783 West Oasis Service Road,Lake Forest,IL,60045,42.25288178,-87.90022364
15663 127th Street,Lemont,IL,60439,41.65665402,-88.00144982
1015 Maple Avenue,Lisle,IL,60532,41.78665415,-88.07104574
#9 Corvette Drive,Litchfield,IL,62056,39.17823548,-89.67523265
16616 W. 159th Street,Lockport,IL,60441,41.59794793,-88.02117938
810 E. Roosevelt Road,Lombard,IL,60148,41.86067592,-87.99940077
1586 W. Lane Road,Machesney Park,IL,61115,42.36572835,-89.02247014
615 East Jackson Street,Macomb,IL,61455,40.45858623,-90.66427648
195 South Creek Drive,Manteno,IL,60950,41.245584,-87.847345
1404 W. Deyoung,Marion,IL,62959,37.74089718,-88.94170041
4349 E. 211th Street,Matteson,IL,60443,41.5060243,-87.72236934
1000 Charleston Avenue,Mattoon,IL,61938,39.48160051,-88.36593203
4503 W Elm Street,McHenry,IL,60050,42.34745876,-88.28581536
1009 Steve Bowne Drive,Mendota,IL,61342,41.55602756,-89.07063396
14559 S. Pulaski Road,Midlothian,IL,60445,41.62762283,-87.71766219
895 West Fourth Street,Milan,IL,61264,41.44389986,-90.5721096
4430 16th Street,Moline,IL,61265,41.46868449,-90.50702031
5737 W. Monee Manhattan Road,Monee,IL,60449,41.42691082,-87.75152928
1701 Douglas Road,Montgomery,IL,60538,41.72317837,-88.31968168
1806 N. Division St,Morris,IL,60450,41.37794605,-88.42217771
927 West Jackson,Morton,IL,61550,40.62011327,-89.46631467
1470 S Elmhurst Rd,Mount Prospect,IL,60056,42.03981236,-87.94084988
#1 Times Square Mall,Mount Vernon,IL,62864,38.31424674,-88.93896243
515 Walnut,Murphysboro,IL,62966,37.76424582,-89.33042413
3028 Reflection Drive,Naperville,IL,60564,41.70890091,-88.20597724
340 Maple Street,New Lenox,IL,60451,41.51606435,-87.97522839
2200 Green Bay Road,North Chicago,IL,60064,42.31916627,-87.86650921
1717 West Highway 50,O Fallon,IL,62269,38.59256123,-89.9593752
5301 West 159th Street,Oak Forest,IL,60452,41.60296705,-87.74924189
10428 South Cicero,Oak Lawn,IL,60453,41.70277371,-87.74031661
316 Madison Street,Oak Park,IL,60302,41.8800405,-87.78370011
101 S. Lewis Avenue,Oglesby,IL,61348,41.29478693,-89.07806698
9441 W. 159th Street,Orland Park,IL,60467,41.60128578,-87.84939345
2751 Columbus Street,Ottawa,IL,61350,41.37110806,-88.83618256
3485 East Court Street,Pekin,IL,61554,40.5435534,-89.59827566
2231 West Glen,Peoria,IL,61614,40.74729337,-89.62832628
603 North Western Avenue,Peoria,IL,61604,40.6948638,-89.62297502
8905 N. Allen Road,Peoria,IL,61615,40.79461897,-89.6312111
2221 Route 59,Plainfield,IL,60586,41.56179506,-88.20139202
3300 Broadway Street,Quincy,IL,62301,39.93514336,-91.36245009
1408 West Main Street,Robinson,IL,62454,39.00572705,-87.7556787
2943 18th Avenue,Rock Island,IL,61201,41.49341541,-90.55803061
1502 Kilburne,Rockford,IL,61101,42.28891983,-89.10341282
3035 South 11th Street,Rockford,IL,61109,42.22936808,-89.07234225
442 N. Weber Road,Romeoville,IL,60446,41.64160815,-88.12471623
440 West Rollins Road,Round Lake,IL,60073,42.37905015,-88.09252058
101 Baldridge Lane,Salem,IL,62881,38.62382016,-88.98254691
130 Duvick Road,Sandwich,IL,60548,41.64680178,-88.59973883
1321 N. Dunlap Avenue,Savoy,IL,61874,40.07048895,-88.24989355
1160 South Roselle Rd,Schaumburg,IL,60193,42.00684934,-88.0802021
1111 North 9th Street,Springfield,IL,62702,39.81450741,-89.64336935
1850 West Jefferson,Springfield,IL,62702,39.80919793,-89.68600549
3150 South 6th Street,Springfield,IL,62703,39.7583383,-89.64618791
2516 East Lincolnway,Sterling,IL,61081,41.80223635,-89.66671742
1060 S Barrington Road,Streamwood,IL,60107,42.01135394,-88.14550788
1690 Dekalb Avenue,Sycamore,IL,60178,41.97371078,-88.71700358
510 North Webster Street,Taylorville,IL,62568,39.55385231,-89.29735306
410 University Avenue,Urbana,IL,61801,40.11655852,-88.21199652
2737 Veterans Avenue,Vandalia,IL,62471,38.96920726,-89.12843152
700 N. Milwaukee Ave,Vernon Hills,IL,60061,42.23806438,-87.94437586
1106 Peoria Street,Washington,IL,61571,40.70287398,-89.42261785
918 N Market St,Waterloo,IL,62298,38.35751516,-90.15487093
501 West Liberty,Wauconda,IL,60084,42.25752882,-88.15142079
1400 N Lewis Ave,Waukegan,IL,60085,42.37980679,-87.8555895
335 Neltnor Blvd,West Chicago,IL,60185,41.88095186,-88.19447125
11158 West 31st Street,Westchester,IL,60154,41.83368557,-87.89980481
9950 W. Roosevelt Road,Westchester,IL,60154,41.86363172,-87.87209691
150 E. Dundee Road,Wheeling,IL,60090,42.13969033,-87.91289927
221 W. Veterans Parkway,Yorkville,IL,60560,41.65826345,-88.4477908
2359 Sheridan Road,Zion,IL,60099,42.45246648,-87.82539279
6620 South Scatterfield Road,Anderson,IN,46013,40.04834497,-85.65233834
618 North Wayne Street,Angola,IN,46703,41.64134922,-84.99936041
1101 West 7th Street,Auburn,IN,46706,41.36655921,-85.07536224
7518 East US Highway 36,Avon,IN,46123,39.76344185,-86.39041845
912 State Road 229,Batesville,IN,47006,39.30673326,-85.21655731
1425 James Avenue,Bedford,IN,47421,38.8625183,-86.5193832
2901 East Third Street,Bloomington,IN,47401,39.16461625,-86.49483
3700 West 3rd Street,Bloomington,IN,47404,39.16468972,-86.58022152
640 North Main Street,Bluffton,IN,46714,40.7471022,-85.16970844
895 N. Green Street,Brownsburg,IN,46112,39.85594135,-86.39261709
10575 N. Michigan Road,Carmel,IN,46032,39.93956944,-86.23603796
1331 S Range Line Rd,Carmel,IN,46032,39.95958665,-86.12672189
1117 Eastern Boulevard,Clarksville,IN,47129,38.30502065,-85.76655918
323 West Plaza Drive,Columbia City,IN,46725,41.17026315,-85.49254195
2760 Brentwood Drive,Columbus,IN,47203,39.22741546,-85.89551601
1790 Highway 135 Northwest,Corydon,IN,47112,38.2271176,-86.13268851
309 North Washington Street,Crawfordsville,IN,47933,40.04479255,-86.90152496
1120 North Main Street,Crown Point,IN,46307,41.42889332,-87.364335
419 North Halleck Street,Demotte,IN,46310,41.20603638,-87.19875726
1900 Cassopolis Street,Elkhart,IN,46514,41.71002343,-85.97200067
2709 South Main Street,Elkhart,IN,46517,41.65908077,-85.94761004
900 South Green River Road,Evansville,IN,47715,37.96394158,-87.49253522
14046 Mundy Drive,Fishers,IN,46038,39.99223756,-86.00277103
3816 East State Boulevard,Fort Wayne,IN,46805,41.09750393,-85.09140347
4515 Maplecrest Road,Fort Wayne,IN,46835,41.12137104,-85.06179043
4901 South Calhoun,Fort Wayne,IN,46807,41.0387763,-85.13564066
595 E. Dupont Road,Fort Wayne,IN,46825,41.17831822,-85.13393528
6046 Covington Road,Fort Wayne,IN,46804,41.05983048,-85.21888034
2401 N. Morton Street,Franklin,IN,46131,39.50716162,-86.06913566
900 Broadway,Gary,IN,46402,41.5945435,-87.33718155
921 W. Pike Street,Goshen,IN,46526,41.58906711,-85.84778571
46 Putnam Plaza,Greencastle,IN,46135,39.64693,-86.83071
1604 North State Street,Greenfield,IN,46140,39.80683086,-85.76994849
1906 North Lincoln Road,Greensburg,IN,47240,39.35445442,-85.47972541
1293 North State Road 135,Greenwood,IN,46142,39.63461672,-86.15824066
1579 North Cline Avenue,Griffith,IN,46319,41.55137085,-87.43170186
2733 169th Street,Hammond,IN,46323,41.58837589,-87.46240056
4120 S. Calumet Avenue,Hammond,IN,46320,41.63895089,-87.50885262
3220 East 80th Ave,Hobart,IN,46342,41.47210821,-87.29699934
7770 E. Ridge Road,Hobart,IN,46342,41.55082301,-87.24475718
2840 North Jefferson Street,Huntington,IN,46750,40.89935655,-85.5118105
10815 Pendleton Pike,Indianapolis,IN,46236,39.86001356,-85.97738114
1812 N Arlington Ave,Indianapolis,IN,46218,39.79224616,-86.06443895
2401 N Meridian St,Indianapolis,IN,46208,39.80124254,-86.15670659
2515 E 38th St,Indianapolis,IN,46218,39.82525955,-86.11946877
3704 W. Washington St,Indianapolis,IN,46241,39.76104248,-86.22357396
4035 S. Emerson,Indianapolis,IN,46203,39.70749731,-86.08243321
4528 W 38th St,Indianapolis,IN,46254,39.82414563,-86.23644382
4789 Kentucky Ave,Indianapolis,IN,46221,39.69854525,-86.2650872
5662 Georgetown Road,Indianapolis,IN,46254,39.85486726,-86.24025886
6154 N. Keystone Avenue,Indianapolis,IN,46220,39.86674826,-86.12236435
6440 E 82nd St,Indianapolis,IN,46250,39.90544709,-86.0555711
7155 Pendleton Pike,Indianapolis,IN,46226,39.82858036,-86.04301072
7215 N Michigan Road,Indianapolis,IN,46268,39.88582342,-86.21019533
8820 E 21st St,Indianapolis,IN,46219,39.79671494,-86.01246793
903 E. Hanna Ave,Indianapolis,IN,46227,39.70811672,-86.14491407
9899 East Washington St,Indianapolis,IN,46229,39.77460192,-85.99291166
1426 East Tenth Street,Jeffersonville,IN,47130,38.28844961,-85.72908747
5501 Highway 62,Jeffersonville,IN,47130,38.35772335,-85.70186291
451 West North Street,Kendallville,IN,46755,41.4522307,-85.27382498
1523 South Reed Rd,Kokomo,IN,46902,40.46956017,-86.10809872
810 N. Washington Street,Kokomo,IN,46901,40.4930072,-86.13364595
213 Pine Lake Avenue,La Porte,IN,46350,41.61668311,-86.73264072
3561 Promenade Parkway,Lafayette,IN,47909,40.3662236,-86.86086157
3809 State Road 26 East,Lafayette,IN,47905,40.41751078,-86.83646696
30 Eads Parkway,Lawrenceburg,IN,47025,39.09689976,-84.85440519
3411 East Market Street,Logansport,IN,46947,40.75719844,-86.32218697
1692 East Commercial,Lowell,IN,46356,41.28985427,-87.40146813
401 Clifty Drive,Madison,IN,47250,38.77487683,-85.39432373
1301 W. 16th Street,Marion,IN,46953,40.54555849,-85.67463481
2235 Burton Lane,Martinsville,IN,46151,39.40419902,-86.43709289
5700 Broadway,Merrillville,IN,46410,41.51435034,-87.33622894
4359 South Franklin Boulevard,Michigan City,IN,46360,41.67404244,-86.89415702
2612 Lincoln Way West,Mishawaka,IN,46544,41.65782025,-86.21217569
315 Bittersweet Road,Mishawaka,IN,46544,41.66542064,-86.10940007
3827 State Highway 37,Mitchell,IN,47446,38.73356576,-86.49197537
2324 S Madison St,Muncie,IN,47302,40.1736433,-85.3815781
601 S. Tillotson Avenue,Muncie,IN,47304,40.18918761,-85.41923906
801 W McGalliard Rd,Muncie,IN,47303,40.21887386,-85.39542482
428 Ridge Road,Munster,IN,46321,41.56241004,-87.5178453
2124 State Street,New Albany,IN,47150,38.30396236,-85.83843538
4301 Charlestown Road,New Albany,IN,47150,38.34993487,-85.79601054
1595 South Memorial Drive,New Castle,IN,47362,39.917204,-85.3834485
1322 East U.S. 30,New Haven,IN,46774,41.06689096,-85.00990788
400 Sheridan Rd,Noblesville,IN,46060,40.0487076,-86.02526277
1850 North State Street,North Vernon,IN,47265,39.01390054,-85.63876534
925 N. Gospel Street,Paoli,IN,47454,38.5675974,-86.46446229
2493 East Main Street,Plainfield,IN,46168,39.71549761,-86.36264758
1401 North Michigan Street,Plymouth,IN,46563,41.35156479,-86.31064249
6140 Central Avenue,Portage,IN,46368,41.57599551,-87.17626935
4280 West U.S. 24,Remington,IN,47977,40.76587943,-87.12796067
8737 West State Road 114,Rensselaer,IN,47978,40.94072298,-87.2136801
1428 National Road West,Richmond,IN,47374,39.82538856,-84.92261294
4575 National Rd East,Richmond,IN,47374,39.83105021,-84.83911743
2080 Main Street,Rochester,IN,46975,41.05289883,-86.21933211
402 South Main Street,Salem,IN,47167,38.60171831,-86.10059996
985 West Lincoln Highway,Schererville,IN,46375,41.49062775,-87.47466557
1280 W. Allen Street,Scottsburg,IN,47170,38.68349297,-85.78612957
7604 Highway 60,Sellersburg,IN,47172,38.37135836,-85.75799284
1127 East Tipton,Seymour,IN,47274,38.95818485,-85.87279313
350 East Broadway,Shelbyville,IN,46176,39.52301377,-85.76831713
3924 N. Portage Road,South Bend,IN,46628,41.72832597,-86.28963385
4207 S. Michigan Street,South Bend,IN,46614,41.63223257,-86.25083984
5011 Western Ave,South Bend,IN,46619,41.67212553,-86.31789862
5890 Crawfordsville Rd,Speedway,IN,46224,39.79692782,-86.26193961
2000 Lafayette Ave,Terre Haute,IN,47805,39.50672747,-87.38706291
4400 US 41 South,Terre Haute,IN,47802,39.41412731,-87.41509679
2402 N. Calumet St,Valparaiso,IN,46383,41.49008507,-87.04801711
2701 Hart Street,Vincennes,IN,47591,38.65880778,-87.50678586
899 Cass Street,Wabash,IN,46992,40.80997329,-85.83295159
414 North Detroit,Warsaw,IN,46580,41.24242264,-85.85255293
1447 E. National Highway,Washington,IN,47501,38.6528374,-87.15916338
609 Sagamore Parkway West,West Lafayette,IN,47906,40.45319261,-86.91726773
323 North Andover Road,Andover,KS,67002,37.69131102,-97.13535709
14 North 130th,Bonner Springs,KS,66012,39.09800295,-94.8832295
215 W 11th Street,Coffeyville,KS,67337,37.03292842,-95.61870891
1260 North Nelson Drive,Derby,KS,67037,37.55840567,-97.27472399
1210 West Wyatt Earp Boulevard,Dodge City,KS,67801,37.75358505,-100.0300755
2003 West Central,El Dorado,KS,67042,37.81726568,-96.87602717
2613 Candlewood Drive,Emporia,KS,66801,38.42411905,-96.2146929
2208 East Kansas Avenue,Garden City,KS,67846,37.97711436,-100.8445898
651 East Main Street,Gardner,KS,66030,38.81090422,-94.91351892
2917 West Tenth,Great Bend,KS,67530,38.36170328,-98.7790954
703 East Fourth Avenue,Hutchinson,KS,67501,38.05745118,-97.91711983
504 W. 6th Street,Junction City,KS,66441,39.02831707,-96.8377646
4401 Shawnee Drive,Kansas City,KS,66106,39.05278145,-94.68070096
635 S 7th St,Kansas City,KS,66105,39.08669473,-94.6257739
7517 State Ave,Kansas City,KS,66112,39.1164137,-94.75396923
658 W. 23rd Street,Lawrence,KS,66046,38.94287868,-95.24606981
9564 Quivira Rd,Lenexa,KS,66215,38.95499972,-94.72377126
234 West Pancake Boulevard,Liberal,KS,67901,37.03233752,-100.9296205
901 N. Third Street,Manhattan,KS,66502,39.18814499,-96.56003878
1500 East Second Street,Newton,KS,67114,38.04335745,-97.31991245
619 East Santa Fe,Olathe,KS,66061,38.88353756,-94.80652697
7100 W. 119th Street,Overland Park,KS,66213,38.91303069,-94.67103657
201 South Angela Street,Paola,KS,66071,38.57214433,-94.85965783
6085 Aircap Drive,Park City,KS,67219,37.79399538,-97.32932846
921 S. Broadway,Pittsburg,KS,66762,37.39950871,-94.70484921
430 South Broadway,Salina,KS,67401,38.8329239,-97.62509481
11560 W. 63rd St,Shawnee,KS,66203,39.01492448,-94.72089221
1812 NW Topeka Boulevard,Topeka,KS,66608,39.08135597,-95.66682691
