Street,City,State,State_name,Zip_code,LON,LAT
KAUMUALII HWY,KALAHEO,HI,Hawaii,96741,-159.5252,21.9249
FARRINGTON HWY,WAIANAE,HI,Hawaii,96792,-158.1837,21.4352
FARRINGTON HWY,KAPOLEI,HI,Hawaii,96707,-158.0785,21.3395
PAPIPI RD,EWA BEACH,HI,Hawaii,96706,-158.0134,21.3154
LEOKU ST,WAIPAHU,HI,Hawaii,96797,-158.0245,21.379
UKEE ST,WAIPAHU,HI,Hawaii,96797,-158.0017,21.4139
MEHEULA PKWY,MILILANI,HI,Hawaii,96789,-158.0221,21.4421
MEHEULA PKWY,MILILANI,HI,Hawaii,96789,-158.0078,21.4534
KAMEHAMEHA HWY,PEARL CITY,HI,Hawaii,96782,-157.9691,21.3936
MOANALUA RD,AIEA,HI,Hawaii,96701,-157.9498,21.3911
S BERETANIA ST,HONOLULU,HI,Hawaii,96814,-157.8429,21.3011
KAPAHULU AVE,HONOLULU,HI,Hawaii,96816,-157.8144,21.2813
S KING ST,HONOLULU,HI,Hawaii,96826,-157.8262,21.2939
WAIALAE AVE,HONOLULU,HI,Hawaii,96816,-157.7864,21.277
TICONDEROGA ST,PEARL HARBOR,HI,Hawaii,96860,-157.9441,21.3484
ALA LILIKOI ST,HONOLULU,HI,Hawaii,96818,-157.9132,21.3449
N SCHOOL ST,HONOLULU,HI,Hawaii,96817,-157.8691,21.3364
N KUAKINI ST,HONOLULU,HI,Hawaii,96817,-157.8576,21.3244
MOANALUA RD,AIEA,HI,Hawaii,96701,-157.9405,21.3849
WILDER AVE,HONOLULU,HI,Hawaii,96822,-157.8385,21.3058
KAMEHAMEHA HWY,KANEOHE,HI,Hawaii,96744,-157.8017,21.4175
WAILEPO ST,KAILUA,HI,Hawaii,96734,-157.7457,21.3963
KEAHOLE ST,HONOLULU,HI,Hawaii,96825,-157.708,21.2852
SADDLE CITY RD,WAIMANALO,HI,Hawaii,96795,-157.7238,21.3537
KEOLU DR,KAILUA,HI,Hawaii,96734,-157.7282,21.3777
MAHIKU PL,WAIMANALO,HI,Hawaii,96795,-157.7318,21.3493
S KIHEI RD,KIHEI,HI,Hawaii,96753,-156.4464,20.7201
PUKALANI,PUKALANI,HI,Hawaii,96788,-156.3414,20.8346
HINAU ST,LAHAINA,HI,Hawaii,96761,-156.6809,20.882
EHA ST,WAILUKU,HI,Hawaii,96793,-156.4878,20.9059
E KAAHUMANU AVE,KAHULUI,HI,Hawaii,96732,-156.4644,20.8907
KUHIO HWY,LIHUE,HI,Hawaii,96766,-159.3684,21.9793
KUHIO HWY,KAPAA,HI,Hawaii,96746,-159.3201,22.0642
CALIFORNIA AVE,WAHIAWA,HI,Hawaii,96786,-158.0256,21.4968
KAMEHAMEHA HWY,LAIE,HI,Hawaii,96762,-157.9217,21.6468
PALANI RD,KAILUA KONA,HI,Hawaii,96740,-155.9963,19.6432
KINOOLE ST,HILO,HI,Hawaii,96720,-155.0694,19.6843
E PUAINAKO ST,HILO,HI,Hawaii,96720,-155.0668,19.6936
KILAUEA AVE,HILO,HI,Hawaii,96720,-155.084,19.7206
OLD VOLCANO RD,KEAAU,HI,Hawaii,96749,-155.04,19.6215
FREMONT BLVD,SEASIDE,CA,California,93955,-121.8429,36.6141
STEVENS CREEK BLVD,CUPERTINO,CA,California,95014,-122.0376,37.3225
W EL CAMINO REAL,SUNNYVALE,CA,California,94087,-122.0571,37.3746
N MATHILDA AVE,SUNNYVALE,CA,California,94085,-122.0303,37.3883
CHERRY AVE,SAN JOSE,CA,California,95118,-121.8851,37.2602
SNELL AVE,SAN JOSE,CA,California,95123,-121.8313,37.2538
COTTLE RD,SAN JOSE,CA,California,95123,-121.8041,37.2498
S WINCHESTER BLVD,SAN JOSE,CA,California,95128,-121.9494,37.3145
RACE ST,SAN JOSE,CA,California,95126,-121.9118,37.3265
KEYES ST,SAN JOSE,CA,California,95112,-121.8769,37.3202
EL CAMINO REAL,SANTA CLARA,CA,California,95051,-121.9753,37.3528
BERRYESSA RD,SAN JOSE,CA,California,95133,-121.8724,37.3746
SENTER RD,SAN JOSE,CA,California,95111,-121.8335,37.2925
S WHITE RD,SAN JOSE,CA,California,95148,-121.793,37.3162
STORY RD,SAN JOSE,CA,California,95127,-121.8193,37.356
E COTATI AVE,ROHNERT PARK,CA,California,94928,-122.6886,38.3343
EL CAMINO REAL,S SAN FRANCISCO,CA,California,94080,-122.429,37.6478
MIDDLEFIELD RD,MENLO PARK,CA,California,94025,-122.2016,37.4707
WHIPPLE AVE,REDWOOD CITY,CA,California,94063,-122.236,37.4939
TRITON DR,FOSTER CITY,CA,California,94404,-122.271,37.5639
SKYLINE PLZ,DALY CITY,CA,California,94015,-122.4874,37.6823
MISSION ST,SAN FRANCISCO,CA,California,94110,-122.4212,37.7432
GEARY ST,SAN FRANCISCO,CA,California,94109,-122.4155,37.7867
EASTSHORE HWY,ALBANY,CA,California,94710,-122.3069,37.8836
FRUITVALE AVE,OAKLAND,CA,California,94601,-122.2206,37.7896
SHATTUCK AVE,OAKLAND,CA,California,94609,-122.266,37.8493
JARVIS AVE,NEWARK,CA,California,94560,-122.0509,37.5487
ARGONAUT WAY,FREMONT,CA,California,94538,-121.9901,37.5458
DECOTO RD,UNION CITY,CA,California,94587,-122.0236,37.5828
ALVARADO BLVD,UNION CITY,CA,California,94587,-122.0704,37.5902
S PARK VICTORIA DR,MILPITAS,CA,California,95035,-121.8831,37.4349
PACIFIC COMMONS BLVD,FREMONT,CA,California,94538,-121.969,37.5007
SIERRA RD,SAN JOSE,CA,California,95132,-121.8483,37.3992
FREMONT BLVD,FREMONT,CA,California,94538,-121.9593,37.533
HESPERIAN BLVD,SAN LORENZO,CA,California,94580,-122.1276,37.6809
W A ST,HAYWARD,CA,California,94541,-122.1191,37.6655
HESPERIAN BLVD,SAN LEANDRO,CA,California,94578,-122.1303,37.7024
MISSION BLVD,HAYWARD,CA,California,94541,-122.0816,37.669
CASTRO VALLEY BLVD,CASTRO VALLEY,CA,California,94546,-122.0728,37.6953
PORTER DR,SAN RAMON,CA,California,94583,-121.9906,37.7741
N MAIN ST,WALNUT CREEK,CA,California,94596,-122.0637,37.9049
ALCOSTA BLVD,SAN RAMON,CA,California,94583,-121.931,37.7286
DUBLIN BLVD,DUBLIN,CA,California,94568,-121.851,37.7066
S L ST,LIVERMORE,CA,California,94550,-121.7703,37.6797
MACDONALD AVE,RICHMOND,CA,California,94805,-122.3275,37.9321
SAN PABLO AVE,EL CERRITO,CA,California,94530,-122.3204,37.9273
SAN PABLO AVE,SAN PABLO,CA,California,94806,-122.3444,37.9681
TARA HILLS DR,PINOLE,CA,California,94564,-122.3051,37.9955
SPRINGS RD,VALLEJO,CA,California,94591,-122.2141,38.1057
BROADWAY ST,VALLEJO,CA,California,94590,-122.2489,38.1155
JEFFERSON ST,NAPA,CA,California,94558,-122.2985,38.3179
CONTRA COSTA BLVD,PLEASANT HILL,CA,California,94523,-122.0605,37.9521
CLAYTON RD,CONCORD,CA,California,94521,-121.9828,37.9617
RAILROAD AVE,PITTSBURG,CA,California,94565,-121.8904,38.016
CONTRA LOMA BLVD,ANTIOCH,CA,California,94509,-121.8219,37.9971
CADENASSO DR,FAIRFIELD,CA,California,94533,-122.0688,38.2464
ALAMO DR,VACAVILLE,CA,California,95687,-121.9947,38.3428
PARKER RD,FAIRFIELD,CA,California,94533,-121.9561,38.2724
STONY POINT RD,SANTA ROSA,CA,California,95401,-122.7447,38.4414
W COURT ST,WOODLAND,CA,California,95695,-121.7854,38.6796
MANGROVE AVE,CHICO,CA,California,95926,-121.8406,39.7446
HILLTOP DR,REDDING,CA,California,96002,-122.3575,40.5776
NORTHCREST DR,CRESCENT CITY,CA,California,95531,-124.1979,41.7652
,KLAMATH,CA,California,95548,-123.9915,41.5186
S RIVERSIDE AVE,MEDFORD,OR,Oregon,97501,-122.8617,42.3149
CENTER DR,MEDFORD,OR,Oregon,97501,-122.8549,42.3124
BIDDLE RD,MEDFORD,OR,Oregon,97504,-122.8742,42.3477
S FRONT ST,CENTRAL POINT,OR,Oregon,97502,-122.9132,42.3694
NE F ST,GRANTS PASS,OR,Oregon,97526,-123.3098,42.4358
NE STEPHENS ST,ROSEBURG,OR,Oregon,97470,-123.3456,43.2213
HIGHWAY 101,FLORENCE,OR,Oregon,97439,-124.1009,43.9839
WILLAMETTE ST,EUGENE,OR,Oregon,97405,-123.091,44.0269
W 11TH AVE,EUGENE,OR,Oregon,97402,-123.1453,44.0483
RIVER RD,EUGENE,OR,Oregon,97404,-123.1275,44.0935
E BROADWAY,EUGENE,OR,Oregon,97401,-123.084,44.0503
S 32ND ST,SPRINGFIELD,OR,Oregon,97478,-122.9808,44.0451
NW KINGS BLVD,CORVALLIS,OR,Oregon,97330,-123.2743,44.5923
14TH AVE SE,ALBANY,OR,Oregon,97322,-123.078,44.6291
S SANTIAM HWY,LEBANON,OR,Oregon,97355,-122.9011,44.5187
S MAIN ST,LEBANON,OR,Oregon,97355,-122.907,44.5304
NE HIGHWAY 99W,MCMINNVILLE,OR,Oregon,97128,-123.1838,45.2262
COMMERCIAL ST SE,SALEM,OR,Oregon,97302,-123.0439,44.9086
LANCASTER DR NE,SALEM,OR,Oregon,97305,-122.9827,44.9653
RIVER RD N,KEIZER,OR,Oregon,97303,-123.0266,44.9895
KEIZER STATION BLVD NE,KEIZER,OR,Oregon,97303,-122.9945,45.0123
MOUNT HOOD AVE,WOODBURN,OR,Oregon,97071,-122.8376,45.1518
MAIN AVE N,TILLAMOOK,OR,Oregon,97141,-123.8433,45.4679
HIGHWAY 101 N,TILLAMOOK,OR,Oregon,97141,-123.8443,45.4676
S ROOSEVELT DR,SEASIDE,OR,Oregon,97138,-123.9219,45.9905
S HIGHWAY 101,WARRENTON,OR,Oregon,97146,-123.8972,46.1622
W WISHKAH ST,ABERDEEN,WA,Washington,98520,-123.8185,46.9743
PACIFIC AVE,FOREST GROVE,OR,Oregon,97116,-123.1061,45.5197
COLLEGE WAY,FOREST GROVE,OR,Oregon,97116,-123.1114,45.5202
N SPRINGBROOK RD,NEWBERG,OR,Oregon,97132,-122.9469,45.3078
SW ADAMS AVE,SHERWOOD,OR,Oregon,97140,-122.8371,45.3663
SW 185TH AVE,ALOHA,OR,Oregon,97078,-122.8683,45.4761
SW TONKA ST,TUALATIN,OR,Oregon,97062,-122.7619,45.3809
SW 116TH AVE,PORTLAND,OR,Oregon,97224,-122.7968,45.4065
SW 117TH AVE,BEAVERTON,OR,Oregon,97005,-122.7989,45.4895
SW ALLEN BLVD,BEAVERTON,OR,Oregon,97005,-122.7734,45.4718
W WALNUT,PORTLAND,OR,Oregon,97225,-122.765,45.4972
SW BARBUR BLVD,PORTLAND,OR,Oregon,97219,-122.6862,45.4717
SW OAK ST,HILLSBORO,OR,Oregon,97123,-122.9982,45.5192
NW 185TH AVE,PORTLAND,OR,Oregon,97229,-122.8675,45.5435
SE POWELL BLVD,PORTLAND,OR,Oregon,97202,-122.6444,45.4993
SE POWELL BLVD,PORTLAND,OR,Oregon,97202,-122.6444,45.4992
ST POWELL BLVD,PORTLAND,OR,Oregon,97214,-122.6429,45.5143
NE SANDY BLVD,PORTLAND,OR,Oregon,97232,-122.6264,45.5331
N LOMBARD ST,PORTLAND,OR,Oregon,97203,-122.723,45.5823
N LOMBARD ST,PORTLAND,OR,Oregon,97203,-122.7245,45.5827
NE M L KING BLVD,PORTLAND,OR,Oregon,97211,-122.6615,45.5595
NE HIGHWAY 99,VANCOUVER,WA,Washington,98665,-122.6633,45.6689
15TH AVE,LONGVIEW,WA,Washington,98632,-122.9355,46.1404
MOLALLA AVE,OREGON CITY,OR,Oregon,97045,-122.5837,45.3277
MCLOUGHLIN BLVD,GLADSTONE,OR,Oregon,97027,-122.6028,45.3787
SE 82ND AVE,HAPPY VALLEY,OR,Oregon,97086,-122.5795,45.438
E POWELL BLVD,GRESHAM,OR,Oregon,97030,-122.4262,45.4983
HIGHWAY 26,SANDY,OR,Oregon,97055,-122.2845,45.4036
NE 82ND AVE,PORTLAND,OR,Oregon,97220,-122.5794,45.527
NE SANDY BLVD,PORTLAND,OR,Oregon,97220,-122.5783,45.553
SE 122ND AVE,PORTLAND,OR,Oregon,97233,-122.5383,45.5108
E BURNSIDE ST,PORTLAND,OR,Oregon,97233,-122.4766,45.5216
NE 181ST AVE,PORTLAND,OR,Oregon,97230,-122.4773,45.5338
NE FOURTH PLAIN BLVD,VANCOUVER,WA,Washington,98661,-122.602,45.6446
SE MILL PLAIN BLVD,VANCOUVER,WA,Washington,98684,-122.5529,45.6209
NE 76TH ST,VANCOUVER,WA,Washington,98662,-122.5545,45.6785
,CAMAS,WA,Washington,98607,-122.4176,45.6367
SW 257TH AVE,TROUTDALE,OR,Oregon,97060,-122.3989,45.5202
EVERGREEN WAY,WASHOUGAL,WA,Washington,98671,-122.3345,45.5787
W MAIN ST,BATTLE GROUND,WA,Washington,98604,-122.5623,45.7806
HARRISON AVE,CENTRALIA,WA,Washington,98531,-122.9723,46.724
LITTLEROCK RD SW,TUMWATER,WA,Washington,98512,-122.92,46.9966
KENYON ST NW,OLYMPIA,WA,Washington,98502,-122.9345,47.0466
PACIFIC AVE SE,LACEY,WA,Washington,98503,-122.803,47.0383
E YELM AVE,YELM,WA,Washington,98597,-122.5905,46.9334
MERIDIAN E,PUYALLUP,WA,Washington,98375,-122.2945,47.085
S 1ST ST,SHELTON,WA,Washington,98584,-123.1018,47.2071
BETHEL RD SE,PORT ORCHARD,WA,Washington,98366,-122.6312,47.5123
6TH ST,BREMERTON,WA,Washington,98312,-122.6475,47.5672
NE RIDDELL RD,BREMERTON,WA,Washington,98310,-122.631,47.6074
STATE HIGHWAY 303 NE,BREMERTON,WA,Washington,98311,-122.6282,47.611
UNION AVE SW,LAKEWOOD,WA,Washington,98498,-122.5541,47.1215
83RD AVE SW,LAKEWOOD,WA,Washington,98498,-122.548,47.1808
PACIFIC AVE S,TACOMA,WA,Washington,98444,-122.4342,47.1212
BRIDGEPORT WAY SW,LAKEWOOD,WA,Washington,98499,-122.5049,47.1569
PACIFIC AVE S,TACOMA,WA,Washington,98444,-122.4334,47.1613
BRIDGEPORT WAY W,UNIVERSITY PLACE,WA,Washington,98466,-122.5372,47.2219
27TH ST W,UNIVERSITY PLACE,WA,Washington,98466,-122.5348,47.2359
S OAKES ST,TACOMA,WA,Washington,98409,-122.4731,47.2142
PACIFIC AVE,TACOMA,WA,Washington,98408,-122.4344,47.2084
6TH AVE,TACOMA,WA,Washington,98406,-122.5056,47.2549
MERIDIAN E,PUYALLUP,WA,Washington,98373,-122.2931,47.1346
WASHINGTON AVE N,ORTING,WA,Washington,98360,-122.2068,47.099
2ND ST NE,PUYALLUP,WA,Washington,98372,-122.2916,47.1923
PACIFIC HWY E,FIFE,WA,Washington,98424,-122.3659,47.2428
21ST AVE SW,FEDERAL WAY,WA,Washington,98023,-122.3627,47.2834
SW CAMPUS DR,FEDERAL WAY,WA,Washington,98023,-122.3597,47.3007
MERIDIAN AVE E,EDGEWOOD,WA,Washington,98371,-122.2938,47.2507
AUBURN WAY S,AUBURN,WA,Washington,98002,-122.2169,47.2964
BORGEN BLVD NW,GIG HARBOR,WA,Washington,98332,-122.6089,47.3587
MILITARY RD S,FEDERAL WAY,WA,Washington,98003,-122.302,47.3417
PACIFIC HWY S,KENT,WA,Washington,98032,-122.2956,47.3923
104TH AVE SE,KENT,WA,Washington,98031,-122.2018,47.3872
SW 104TH ST,SEATTLE,WA,Washington,98146,-122.3546,47.5099
TUKWILA INTERNATIONAL BLVD,TUKWILA,WA,Washington,98168,-122.2853,47.4713
108TH AVE SE,RENTON,WA,Washington,98055,-122.1965,47.4436
RAINIER AVE S,RENTON,WA,Washington,98057,-122.2176,47.481
N LANDING WAY,RENTON,WA,Washington,98057,-122.1999,47.4962
RAINIER AVE S,SEATTLE,WA,Washington,98178,-122.232,47.5068
S PRAIRIE RD E,BONNEY LAKE,WA,Washington,98391,-122.162,47.1677
ROOSEVELT AVE,ENUMCLAW,WA,Washington,98022,-121.9831,47.1997
SE KENT KANGLEY RD,KENT,WA,Washington,98030,-122.168,47.3572
172ND AVE SE,COVINGTON,WA,Washington,98042,-122.1127,47.3573
NE SUNSET BLVD,RENTON,WA,Washington,98056,-122.1814,47.4988
35TH AVE SW,SEATTLE,WA,Washington,98126,-122.3767,47.5445
QUEEN ANNE AVE N,SEATTLE,WA,Washington,98109,-122.3572,47.6393
33RD AVE S,SEATTLE,WA,Washington,98144,-122.2907,47.5704
E MADISON ST,SEATTLE,WA,Washington,98112,-122.2959,47.6232
15TH AVE NW,SEATTLE,WA,Washington,98117,-122.3772,47.6915
N 90TH ST,SEATTLE,WA,Washington,98103,-122.3443,47.6943
NE 65TH ST,SEATTLE,WA,Washington,98115,-122.3116,47.6757
15TH AVE NE,SEATTLE,WA,Washington,98125,-122.3124,47.7335
100TH AVE NE,KIRKLAND,WA,Washington,98034,-122.2069,47.7219
HIGHWAY 99,EDMONDS,WA,Washington,98026,-122.3447,47.7828
196TH ST SW,LYNNWOOD,WA,Washington,98036,-122.3258,47.8217
196TH ST SW,LYNNWOOD,WA,Washington,98036,-122.3166,47.821
BOTHELL EVERETT HWY,BOTHELL,WA,Washington,98021,-122.2077,47.8088
BOTHELL EVERETT HWY,BOTHELL,WA,Washington,98012,-122.2093,47.8341
HARBOUR REACH DR,MUKILTEO,WA,Washington,98275,-122.2941,47.8889
HIGHWAY 99,EVERETT,WA,Washington,98204,-122.264,47.8855
MUKILTEO SPEEDWAY,MUKILTEO,WA,Washington,98275,-122.2864,47.8922
128TH ST SW,EVERETT,WA,Washington,98204,-122.2402,47.8825
EVERGREEN WAY,EVERETT,WA,Washington,98203,-122.2138,47.9533
SE 37TH ST,BELLEVUE,WA,Washington,98006,-122.1376,47.5776
145TH PL SE,BELLEVUE,WA,Washington,98007,-122.15,47.5971
152ND AVE NE,REDMOND,WA,Washington,98052,-122.1377,47.6337
REDMOND WAY,REDMOND,WA,Washington,98052,-122.1284,47.6747
CLEVELAND ST,REDMOND,WA,Washington,98052,-122.1196,47.6726
TOTEM LAKE BLVD NE,KIRKLAND,WA,Washington,98034,-122.1794,47.71
132ND ST SE,EVERETT,WA,Washington,98208,-122.1648,47.8772
STATE ROUTE 20,OAK HARBOR,WA,Washington,98277,-122.6531,48.2982
MARKET PL,LAKE STEVENS,WA,Washington,98258,-122.1102,47.9992
STATE AVE,MARYSVILLE,WA,Washington,98270,-122.1769,48.0539
STATE AVE,MARYSVILLE,WA,Washington,98270,-122.177,48.0675
TWIN LAKES AVE,MARYSVILLE,WA,Washington,98271,-122.1887,48.1455
RIVERSIDE DR,MT VERNON,WA,Washington,98273,-122.3351,48.436
E COLLEGE WAY,MT VERNON,WA,Washington,98273,-122.3381,48.4359
S SAMISH WAY,BELLINGHAM,WA,Washington,98225,-122.4699,48.7353
MAIN ST,FERNDALE,WA,Washington,98248,-122.5796,48.8449
KENAI SPUR HWY,KENAI,AK,Alaska,99611,-151.2284,60.5616
OLD SEWARD HWY,ANCHORAGE,AK,Alaska,99515,-149.8581,61.1041
CENTER CT,ANCHORAGE,AK,Alaska,99518,-149.8837,61.1685
SPENARD RD,ANCHORAGE,AK,Alaska,99517,-149.9142,61.1865
E BENSON BLVD,ANCHORAGE,AK,Alaska,99503,-149.8821,61.1939
E TUDOR RD,ANCHORAGE,AK,Alaska,99507,-149.8401,61.181
E 6TH AVE,ANCHORAGE,AK,Alaska,99501,-149.8824,61.2165
BONIFACE PKWY,ANCHORAGE,AK,Alaska,99504,-149.7781,61.2212
OLD GLENN HWY,EAGLE RIVER,AK,Alaska,99577,-149.571,61.3268
E PARKS HWY,WASILLA,AK,Alaska,99654,-149.4283,61.5818
GEIST RD,FAIRBANKS,AK,Alaska,99709,-147.8232,64.8486
AIRPORT WAY,FAIRBANKS,AK,Alaska,99701,-147.7614,64.8364
COLLEGE RD,FAIRBANKS,AK,Alaska,99701,-147.7147,64.8533
BEYER BLVD,SAN DIEGO,CA,California,92154,-117.0674,32.5751
CORONADO AVE,SAN DIEGO,CA,California,92154,-117.0938,32.5765
CORONADO AVE,SAN DIEGO,CA,California,92154,-117.0946,32.5769
PALOMAR ST,CHULA VISTA,CA,California,91911,-117.0648,32.6076
BROADWAY,CHULA VISTA,CA,California,91910,-117.0889,32.6294
SWEETWATER RD,NATIONAL CITY,CA,California,91950,-117.0831,32.6608
MIDWAY DR,SAN DIEGO,CA,California,92110,-117.2143,32.7516
GARNET AVE,SAN DIEGO,CA,California,92109,-117.234,32.801
LINDA VISTA RD,SAN DIEGO,CA,California,92111,-117.1709,32.7838
MARKET ST,SAN DIEGO,CA,California,92102,-117.1307,32.7114
UNIVERSITY AVE,SAN DIEGO,CA,California,92104,-117.1341,32.7487
EL CAJON BLVD,SAN DIEGO,CA,California,92105,-117.1075,32.7556
EUCLID AVE,SAN DIEGO,CA,California,92105,-117.0849,32.7236
MISSION VILLAGE DR,SAN DIEGO,CA,California,92123,-117.1236,32.7946
FRIARS RD,SAN DIEGO,CA,California,92120,-117.0992,32.7912
FRIARS RD,SAN DIEGO,CA,California,92120,-117.0989,32.7922
TOWNE CENTRE DR,SAN DIEGO,CA,California,92122,-117.2062,32.8674
CLAIREMONT MESA BLVD,SAN DIEGO,CA,California,92124,-117.1043,32.8302
MIRA MESA BLVD,SAN DIEGO,CA,California,92126,-117.1485,32.913
MIRA MESA BLVD,SAN DIEGO,CA,California,92131,-117.1125,32.9173
CARMEL MOUNTAIN RD,SAN DIEGO,CA,California,92129,-117.1154,32.9603
N EL CAMINO REAL,ENCINITAS,CA,California,92024,-117.2596,33.0483
EL CAMINO REAL,CARLSBAD,CA,California,92009,-117.2666,33.0819
BERNARDO PLAZA DR,SAN DIEGO,CA,California,92128,-117.0743,33.0202
RANCHO BERNARDO RD,SAN DIEGO,CA,California,92128,-117.0765,33.0229
E H ST,CHULA VISTA,CA,California,91910,-117.0237,32.6362
EASTLAKE PKWY,CHULA VISTA,CA,California,91915,-116.9653,32.6288
PROCTOR VALLEY RD,CHULA VISTA,CA,California,91914,-116.9697,32.6617
BROADWAY,LEMON GROVE,CA,California,91945,-117.0234,32.7433
CAMPO RD,SPRING VALLEY,CA,California,91977,-116.9852,32.7472
EL CAJON BLVD,SAN DIEGO,CA,California,92115,-117.0531,32.7683
UNIVERSITY AVE,LA MESA,CA,California,91942,-117.0247,32.7651
AVOCADO AVE,EL CAJON,CA,California,92020,-116.9568,32.7781
BROADWAY,EL CAJON,CA,California,92021,-116.9591,32.8083
JAMACHA RD,EL CAJON,CA,California,92019,-116.9415,32.7396
N 2ND ST,EL CAJON,CA,California,92021,-116.935,32.8203
CUYAMACA ST,SANTEE,CA,California,92071,-116.9849,32.8483
HILLCREEK WAY,SANTEE,CA,California,92071,-116.9622,32.8505
WOODSIDE AVE,LAKESIDE,CA,California,92040,-116.9261,32.8574
MAIN ST,RAMONA,CA,California,92065,-116.879,33.0359
ALPINE BLVD,ALPINE,CA,California,91901,-116.7553,32.8351
N IMPERIAL AVE,EL CENTRO,CA,California,92243,-115.5695,32.7982
ROCKWOOD AVE,CALEXICO,CA,California,92231,-115.4988,32.6966
W MAIN ST,BRAWLEY,CA,California,92227,-115.5472,32.979
E GRAND AVE,ARROYO GRANDE,CA,California,93420,-120.597,35.1202
E MAIN ST,SANTA MARIA,CA,California,93454,-120.4251,34.9534
W CHANNEL ISLANDS BLVD,PORT HUENEME,CA,California,93041,-119.2107,34.176
SAVIERS RD,OXNARD,CA,California,93033,-119.1775,34.1772
S REINO RD,NEWBURY PARK,CA,California,91320,-118.9551,34.1709
S RANCHO RD,THOUSAND OAKS,CA,California,91362,-118.858,34.1782
PENINSULA CTR,ROLLING HLS ESTS,CA,California,90274,-118.3754,33.7753
PACIFIC COAST HWY,TORRANCE,CA,California,90505,-118.3549,33.8062
ANZA AVE,TORRANCE,CA,California,90503,-118.3628,33.8483
N SEPULVEDA BLVD,MANHATTAN BEACH,CA,California,90266,-118.3959,33.8816
W ROSECRANS AVE,HAWTHORNE,CA,California,90250,-118.3622,33.9018
HAWTHORNE BLVD,HAWTHORNE,CA,California,90250,-118.3528,33.9216
KANAN RD,AGOURA HILLS,CA,California,91301,-118.7562,34.1569
VICTORY BLVD,WEST HILLS,CA,California,91307,-118.6436,34.187
VICTORY BLVD,RESEDA,CA,California,91335,-118.5562,34.1868
LINCOLN BLVD,MARINA DEL REY,CA,California,90292,-118.447,33.9896
PICO BLVD,SANTA MONICA,CA,California,90405,-118.4687,34.0202
SANTA MONICA BLVD,LOS ANGELES,CA,California,90025,-118.4648,34.0399
SEPULVEDA BLVD,CULVER CITY,CA,California,90230,-118.3957,33.9854
S LA BREA AVE,INGLEWOOD,CA,California,90301,-118.353,33.9459
N LA BREA AVE,INGLEWOOD,CA,California,90302,-118.3573,33.9765
PALMS BLVD,LOS ANGELES,CA,California,90034,-118.4221,34.0193
JEFFERSON BLVD,CULVER CITY,CA,California,90230,-118.3942,34.0024
VIRGINIA AVE,CULVER CITY,CA,California,90232,-118.3941,34.0071
S LA CIENEGA BLVD,LOS ANGELES,CA,California,90035,-118.3767,34.045
VENICE BLVD,LOS ANGELES,CA,California,90019,-118.3506,34.0456
VANOWEN ST,VAN NUYS,CA,California,91406,-118.5175,34.1938
BURBANK BLVD,SHERMAN OAKS,CA,California,91411,-118.4577,34.1717
SEPULVEDA BLVD,VAN NUYS,CA,California,91411,-118.4662,34.1745
WHITSETT AVE,VALLEY VILLAGE,CA,California,91607,-118.4049,34.1653
VICTORY BLVD,NORTH HOLLYWOOD,CA,California,91606,-118.4047,34.187
VINELAND AVE,NORTH HOLLYWOOD,CA,California,91602,-118.3703,34.1506
LANKERSHIM BLVD,NORTH HOLLYWOOD,CA,California,91601,-118.3827,34.1789
W MAGNOLIA BLVD,BURBANK,CA,California,91505,-118.3434,34.1691
CALLE REAL,GOLETA,CA,California,93117,-119.8285,34.4415
S VICTORIA AVE,VENTURA,CA,California,93003,-119.2118,34.2615
E THOMPSON BLVD,VENTURA,CA,California,93003,-119.2617,34.273
KERN ST,TAFT,CA,California,93268,-119.4642,35.1446
N VENTURA RD,OXNARD,CA,California,93030,-119.1946,34.2102
ARNEILL RD,CAMARILLO,CA,California,93010,-119.0386,34.2185
W LOS ANGELES AVE,MOORPARK,CA,California,93021,-118.885,34.2789
1ST ST,SIMI VALLEY,CA,California,93065,-118.7784,34.273
SHERMAN WAY,CANOGA PARK,CA,California,91303,-118.6127,34.2018
FALLBROOK AVE,WEST HILLS,CA,California,91307,-118.6238,34.208
SATICOY ST,RESEDA,CA,California,91335,-118.5553,34.2084
LASSEN ST,CHATSWORTH,CA,California,91311,-118.589,34.2503
THE OLD RD,CASTAIC,CA,California,91384,-118.6175,34.4563
MAGIC MOUNTAIN PKWY,VALENCIA,CA,California,91355,-118.5615,34.4195
RESEDA BLVD,RESEDA,CA,California,91335,-118.5356,34.1962
RESEDA BLVD,NORTHRIDGE,CA,California,91324,-118.5361,34.2564
DEVONSHIRE ST,GRANADA HILLS,CA,California,91344,-118.5008,34.2576
VAN NUYS BLVD,VAN NUYS,CA,California,91405,-118.4487,34.2003
NORDHOFF ST,NORTH HILLS,CA,California,91343,-118.4738,34.2352
NORDHOFF ST,PANORAMA CITY,CA,California,91402,-118.4481,34.2354
SEPULVEDA BLVD,MISSION HILLS,CA,California,91345,-118.4674,34.265
LAUREL CANYON BLVD,PACOIMA,CA,California,91331,-118.432,34.2584
LANKERSHIM BLVD,NORTH HOLLYWOOD,CA,California,91605,-118.3878,34.2166
N MACLAY AVE,SAN FERNANDO,CA,California,91340,-118.4343,34.2884
GLENOAKS BLVD,SYLMAR,CA,California,91342,-118.4426,34.3015
LYONS AVE,NEWHALL,CA,California,91321,-118.5435,34.3792
SECO CANYON RD,SANTA CLARITA,CA,California,91350,-118.534,34.4597
SOLEDAD CANYON RD,CANYON COUNTRY,CA,California,91351,-118.4569,34.4163
TUCKER RD,TEHACHAPI,CA,California,93561,-118.4681,35.1252
EL CAMINO REAL,ATASCADERO,CA,California,93422,-120.6638,35.4866
SPRING ST,PASO ROBLES,CA,California,93446,-120.6908,35.6197
W POLK ST,COALINGA,CA,California,93210,-120.3653,36.1365
N MAIN ST,SALINAS,CA,California,93906,-121.6525,36.6982
N MAIN ST,SALINAS,CA,California,93906,-121.6529,36.7038
TRES PINOS RD,HOLLISTER,CA,California,95023,-121.3959,36.839
1ST ST,GILROY,CA,California,95020,-121.5932,37.0143
MONTEREY ST,MORGAN HILL,CA,California,95037,-121.6396,37.1103
PACHECO BLVD,LOS BANOS,CA,California,93635,-120.8539,37.0569
E BELLEVUE RD,ATWATER,CA,California,95301,-120.5877,37.3605
COMMERCE AVE,ATWATER,CA,California,95301,-120.61,37.3426
COUNTRY CLUB DR,MADERA,CA,California,93638,-120.0737,36.9796
W OLIVE AVE,MERCED,CA,California,95348,-120.4776,37.3197
HIGHWAY 46,LOST HILLS,CA,California,93249,-119.658,35.6157
HIGHWAY 46,WASCO,CA,California,93280,-119.352,35.6016
CECIL AVE,DELANO,CA,California,93215,-119.2502,35.776
DANA CIR,KETTLEMAN CITY,CA,California,93239,-119.959,35.9895
N LEMOORE AVE,LEMOORE,CA,California,93245,-119.7812,36.3121
W LACEY BLVD,HANFORD,CA,California,93230,-119.6564,36.3275
N 11TH AVE,HANFORD,CA,California,93230,-119.6554,36.329
N THOMPSON RD,TIPTON,CA,California,93272,-119.3132,36.0652
E PROSPERITY AVE,TULARE,CA,California,93274,-119.3278,36.226
W WALNUT AVE,VISALIA,CA,California,93277,-119.3297,36.3128
S AKERS ST,VISALIA,CA,California,93291,-119.3496,36.3289
E TULARE AVE,VISALIA,CA,California,93277,-119.2886,36.3201
STOCKDALE HWY,BAKERSFIELD,CA,California,93314,-119.1471,35.3542
ROSEDALE HWY,BAKERSFIELD,CA,California,93312,-119.0926,35.3848
PANAMA LN,BAKERSFIELD,CA,California,93313,-119.0396,35.2944
WHITE LN,BAKERSFIELD,CA,California,93309,-119.0729,35.3191
PLANZ RD,BAKERSFIELD,CA,California,93309,-119.0559,35.3256
STOCKDALE HWY,BAKERSFIELD,CA,California,93309,-119.0594,35.3541
N CHESTER AVE,BAKERSFIELD,CA,California,93308,-119.0214,35.4273
AUBURN ST,BAKERSFIELD,CA,California,93306,-118.9525,35.3974
NILES ST,BAKERSFIELD,CA,California,93306,-118.9483,35.3762
W OLIVE AVE,PORTERVILLE,CA,California,93257,-119.0259,36.0655
W HENDERSON AVE,PORTERVILLE,CA,California,93257,-119.0228,36.0808
FLORAL AVE,SELMA,CA,California,93662,-119.633,36.5786
N FIGARDEN DR,FRESNO,CA,California,93722,-119.8703,36.8214
FRESNO ST,FRESNO,CA,California,93706,-119.8004,36.7312
S CLOVIS AVE,FRESNO,CA,California,93727,-119.7002,36.7361
W CLINTON AVE,FRESNO,CA,California,93705,-119.8328,36.7718
N BLACKSTONE AVE,FRESNO,CA,California,93726,-119.7892,36.7947
N BLACKSTONE AVE,FRESNO,CA,California,93703,-119.791,36.7699
E DAKOTA AVE,FRESNO,CA,California,93726,-119.755,36.7865
N 1ST ST,FRESNO,CA,California,93720,-119.7741,36.8508
HERNDON AVE,CLOVIS,CA,California,93611,-119.6864,36.8371
E EL MONTE WAY,DINUBA,CA,California,93618,-119.3779,36.5452
ACADEMY AVE,SANGER,CA,California,93657,-119.5542,36.7003
PLACENTIA AVE,COSTA MESA,CA,California,92627,-117.9323,33.6436
E 17TH ST,COSTA MESA,CA,California,92627,-117.9166,33.6339
PACIFIC COAST HWY,DANA POINT,CA,California,92629,-117.7035,33.4662
S COAST HIGHWAY A & B,DANA POINT,CA,California,92629,-117.7005,33.4793
ALICIA PKWY,LAGUNA NIGUEL,CA,California,92677,-117.717,33.5265
ALICIA PKWY,LAGUNA HILLS,CA,California,92653,-117.6986,33.5928
SPECTRUM CENTER DR,IRVINE,CA,California,92618,-117.745,33.6487
ROCKFIELD BLVD,LAKE FOREST,CA,California,92630,-117.7172,33.6296
E AVENIDA PICO,SAN CLEMENTE,CA,California,92672,-117.6246,33.4376
S EL CAMINO REAL,SAN CLEMENTE,CA,California,92672,-117.6088,33.4218
CAMINO CAPISTRANO,SAN JUAN CPSTRNO,CA,California,92675,-117.6626,33.4968
ANTONIO PKWY,LADERA RANCH,CA,California,92694,-117.6299,33.5615
LA PAZ RD,MISSION VIEJO,CA,California,92691,-117.6725,33.6009
MARGUERITE PKWY,MISSION VIEJO,CA,California,92692,-117.6559,33.5983
EL TORO RD,LAKE FOREST,CA,California,92630,-117.6827,33.6358
S GAFFEY ST,SAN PEDRO,CA,California,90731,-118.2923,33.7381
S WESTERN AVE,RANCHO PLS VRDS,CA,California,90275,-118.31,33.747
E 7TH ST,LONG BEACH,CA,California,90813,-118.1903,33.7751
E 4TH ST,LONG BEACH,CA,California,90802,-118.1761,33.7715
E 7TH ST,LONG BEACH,CA,California,90804,-118.1515,33.7751
PACIFIC COAST HWY,LOMITA,CA,California,90717,-118.3122,33.7895
SEPULVEDA BLVD,TORRANCE,CA,California,90502,-118.2907,33.8107
W SEPULVEDA BLVD,CARSON,CA,California,90745,-118.286,33.8095
W CARSON ST,TORRANCE,CA,California,90502,-118.2967,33.8316
MAIN ST,CARSON,CA,California,90745,-118.2759,33.8137
W PACIFIC COAST HWY,WILMINGTON,CA,California,90744,-118.2742,33.7908
AVALON BLVD,CARSON,CA,California,90746,-118.2653,33.8467
ARTESIA BLVD,TORRANCE,CA,California,90504,-118.318,33.8728
W 190TH ST,TORRANCE,CA,California,90501,-118.3015,33.8579
W ROSECRANS AVE,HAWTHORNE,CA,California,90250,-118.3269,33.902
W ROSECRANS AVE,GARDENA,CA,California,90247,-118.3,33.9019
S WESTERN AVE,GARDENA,CA,California,90249,-118.3091,33.9016
W WILLOW ST,LONG BEACH,CA,California,90806,-118.1951,33.8041
LONG BEACH BLVD,LONG BEACH,CA,California,90813,-118.1889,33.7884
E 33RD ST,SIGNAL HILL,CA,California,90755,-118.1817,33.8161
E LOS COYOTES DIAGONAL,LONG BEACH,CA,California,90815,-118.1408,33.791
N BELLFLOWER BLVD,LONG BEACH,CA,California,90815,-118.1252,33.798
E MARKET ST,LONG BEACH,CA,California,90805,-118.1775,33.8546
N LAKEWOOD BLVD,LONG BEACH,CA,California,90808,-118.1423,33.833
ALONDRA BLVD,PARAMOUNT,CA,California,90723,-118.159,33.8893
ALONDRA BLVD,BELLFLOWER,CA,California,90706,-118.1401,33.8892
IMPERIAL HWY,DOWNEY,CA,California,90242,-118.1338,33.9173
BOLSA CHICA ST,HUNTINGTON BEACH,CA,California,92649,-118.0416,33.7232
VALLEY VIEW ST,GARDEN GROVE,CA,California,92845,-118.0308,33.7808
BEACH BLVD,HUNTINGTON BEACH,CA,California,92648,-117.9886,33.6662
WARNER AVE,HUNTINGTON BEACH,CA,California,92647,-118.0096,33.7156
BEACH BLVD,HUNTINGTON BEACH,CA,California,92648,-117.9889,33.6909
MAGNOLIA ST,HUNTINGTON BEACH,CA,California,92646,-117.9717,33.6858
BEACH BLVD,HUNTINGTON BEACH,CA,California,92647,-117.9886,33.7105
HARBOR BLVD,COSTA MESA,CA,California,92626,-117.9186,33.6724
BEACH BLVD,WESTMINSTER,CA,California,92683,-117.9891,33.7242
WESTMINSTER BLVD,WESTMINSTER,CA,California,92683,-118.0084,33.7591
BROOKHURST ST,FOUNTAIN VALLEY,CA,California,92708,-117.9558,33.73
N HARBOR BLVD,SANTA ANA,CA,California,92703,-117.9197,33.7514
WESTMINSTER AVE,GARDEN GROVE,CA,California,92843,-117.9534,33.7592
DEL AMO BLVD,LAKEWOOD,CA,California,90713,-118.1176,33.8466
CARSON ST,HAWAIIAN GARDENS,CA,California,90716,-118.0787,33.8311
BALL RD,CYPRESS,CA,California,90630,-118.0606,33.8177
BALL RD,CYPRESS,CA,California,90630,-118.0199,33.8175
DEL AMO BLVD,LAKEWOOD,CA,California,90715,-118.0633,33.8462
SOUTH ST,LAKEWOOD,CA,California,90713,-118.1161,33.8583
SOUTH ST,CERRITOS,CA,California,90703,-118.0878,33.8594
PIONEER BLVD,ARTESIA,CA,California,90701,-118.0822,33.8654
ROSECRANS AVE,NORWALK,CA,California,90650,-118.0996,33.9017
PIONEER BLVD,NORWALK,CA,California,90650,-118.0812,33.9162
IMPERIAL HWY,NORWALK,CA,California,90650,-118.074,33.9172
BEACH BLVD,STANTON,CA,California,90680,-117.9934,33.7875
S MAGNOLIA AVE,ANAHEIM,CA,California,92804,-117.9764,33.8283
CHAPMAN AVE,GARDEN GROVE,CA,California,92840,-117.9573,33.7882
W KATELLA AVE,ANAHEIM,CA,California,92802,-117.9413,33.8033
EUCLID ST,GARDEN GROVE,CA,California,92840,-117.9416,33.7898
W CHAPMAN AVE,ANAHEIM,CA,California,92802,-117.9135,33.789
S EUCLID ST,ANAHEIM,CA,California,92802,-117.941,33.8259
W LA PALMA AVE,ANAHEIM,CA,California,92801,-117.9264,33.8469
BEACH BLVD,BUENA PARK,CA,California,90621,-117.9978,33.8611
BEACH BLVD,BUENA PARK,CA,California,90621,-117.9943,33.8848
LA MIRADA BLVD,LA MIRADA,CA,California,90638,-118.0118,33.919
N EUCLID ST,FULLERTON,CA,California,92832,-117.9419,33.8706
E COMMONWEALTH AVE,FULLERTON,CA,California,92832,-117.9171,33.8696
CRENSHAW BLVD,INGLEWOOD,CA,California,90303,-118.3269,33.9345
W CENTURY BLVD,LOS ANGELES,CA,California,90044,-118.2922,33.9458
CRENSHAW BLVD,LOS ANGELES,CA,California,90043,-118.3304,33.9852
W SLAUSON AVE,LOS ANGELES,CA,California,90047,-118.3103,33.9894
S VERMONT AVE,LOS ANGELES,CA,California,90044,-118.2915,33.9894
E IMPERIAL HWY,LOS ANGELES,CA,California,90059,-118.2647,33.9314
E FLORENCE AVE,LOS ANGELES,CA,California,90001,-118.2482,33.9751
LEIMERT BLVD,LOS ANGELES,CA,California,90008,-118.3296,34.005
W MARTIN LUTHER KING JR BLVD,LOS ANGELES,CA,California,90037,-118.2923,34.0108
CRENSHAW BLVD,LOS ANGELES,CA,California,90016,-118.3347,34.0309
S VERMONT AVE,LOS ANGELES,CA,California,90007,-118.2916,34.0345
S WESTERN AVE,LOS ANGELES,CA,California,90006,-118.3094,34.0439
S FIGUEROA ST,LOS ANGELES,CA,California,90007,-118.2765,34.0267
SANTEE ST,LOS ANGELES,CA,California,90015,-118.2574,34.0363
S LOS ANGELES ST,LOS ANGELES,CA,California,90014,-118.2507,34.0426
LONG BEACH BLVD,LYNWOOD,CA,California,90262,-118.2113,33.9285
TWEEDY BLVD,SOUTH GATE,CA,California,90280,-118.2132,33.9454
MARTIN LUTHER KING JR BLVD,LYNWOOD,CA,California,90262,-118.2033,33.9322
ATLANTIC AVE,LYNWOOD,CA,California,90262,-118.184,33.9305
E FLORENCE AVE,HUNTINGTON PARK,CA,California,90255,-118.2107,33.9727
PACIFIC BLVD,HUNTINGTON PARK,CA,California,90255,-118.2252,33.986
ATLANTIC AVE,BELL,CA,California,90201,-118.1875,33.9719
FIRESTONE BLVD,DOWNEY,CA,California,90241,-118.1568,33.9482
FIRESTONE BLVD,SOUTH GATE,CA,California,90280,-118.1674,33.9483
FLORENCE AVE,DOWNEY,CA,California,90240,-118.1306,33.9538
GAGE AVE,BELL GARDENS,CA,California,90201,-118.1625,33.9751
E 1ST ST,LOS ANGELES,CA,California,90063,-118.195,34.0368
WHITTIER BLVD,LOS ANGELES,CA,California,90022,-118.1569,34.0204
E CESAR E CHAVEZ AVE,LOS ANGELES,CA,California,90063,-118.1753,34.0406
S ATLANTIC BLVD,MONTEREY PARK,CA,California,91754,-118.1452,34.0383
BEVERLY BLVD,LOS ANGELES,CA,California,90004,-118.3006,34.0763
SANTA MONICA BLVD,LOS ANGELES,CA,California,90029,-118.2904,34.0911
W SUNSET BLVD,LOS ANGELES,CA,California,90028,-118.3357,34.0976
HYPERION AVE,LOS ANGELES,CA,California,90027,-118.2714,34.1074
N SAN FERNANDO BLVD,BURBANK,CA,California,91504,-118.3197,34.1894
W GLENOAKS BLVD,GLENDALE,CA,California,91201,-118.2857,34.1678
S CENTRAL AVE,GLENDALE,CA,California,91204,-118.2582,34.13
N FIGUEROA ST,LOS ANGELES,CA,California,90065,-118.2082,34.095
YORK BLVD,LOS ANGELES,CA,California,90042,-118.1908,34.1187
HUNTINGTON DR S,LOS ANGELES,CA,California,90032,-118.1707,34.0888
W COMMONWEALTH AVE,ALHAMBRA,CA,California,91803,-118.1515,34.0875
S ATLANTIC BLVD,ALHAMBRA,CA,California,91803,-118.1342,34.0785
N ATLANTIC BLVD,ALHAMBRA,CA,California,91801,-118.1349,34.1063
S ARROYO PKWY,PASADENA,CA,California,91105,-118.1478,34.1324
LAKE AVE,ALTADENA,CA,California,91001,-118.1316,34.1839
N LAKE AVE,PASADENA,CA,California,91104,-118.1323,34.1679
TELEGRAPH RD,WHITTIER,CA,California,90605,-118.0429,33.9383
WHITTIER BLVD,WHITTIER,CA,California,90601,-118.0542,33.983
W BEVERLY BLVD,MONTEBELLO,CA,California,90640,-118.1153,34.0188
WHITTIER BLVD,PICO RIVERA,CA,California,90660,-118.0806,33.9998
WHITTIER BLVD,PICO RIVERA,CA,California,90660,-118.0782,33.9988
N HARBOR BLVD,LA HABRA,CA,California,90631,-117.933,33.9347
S HACIENDA BLVD,HACIENDA HEIGHTS,CA,California,91745,-117.9686,33.995
AMAR RD,LA PUENTE,CA,California,91744,-117.9674,34.0485
VALLEY BLVD,CITY OF INDUSTRY,CA,California,91746,-117.9601,34.0226
N HACIENDA BLVD,LA PUENTE,CA,California,91744,-117.9494,34.0435
GARVEY AVE,ROSEMEAD,CA,California,91770,-118.0997,34.0629
E LAS TUNAS DR,SAN GABRIEL,CA,California,91776,-118.0872,34.1043
GARVEY AVE,EL MONTE,CA,California,91732,-118.0213,34.0623
E LIVE OAK AVE,ARCADIA,CA,California,91006,-118.0254,34.1085
S ROSEMEAD BLVD,PASADENA,CA,California,91107,-118.0738,34.1428
E FOOTHILL BLVD,ARCADIA,CA,California,91006,-118.0266,34.1519
RAMONA BLVD,BALDWIN PARK,CA,California,91706,-117.9694,34.0838
BALDWIN PARK BLVD,BALDWIN PARK,CA,California,91706,-117.9796,34.0692
S VINCENT AVE,WEST COVINA,CA,California,91790,-117.9269,34.0663
W SAN BERNARDINO RD,COVINA,CA,California,91722,-117.9247,34.0899
HUNTINGTON DR,DUARTE,CA,California,91010,-117.9792,34.1397
JAMBOREE RD,NEWPORT BEACH,CA,California,92660,-117.8649,33.6567
S FAIRVIEW ST,SANTA ANA,CA,California,92704,-117.9077,33.7129
S BRISTOL ST,SANTA ANA,CA,California,92704,-117.8854,33.7024
S GRAND AVE,SANTA ANA,CA,California,92705,-117.8506,33.7164
BARRANCA PKWY,IRVINE,CA,California,92606,-117.812,33.6863
W 1ST ST,SANTA ANA,CA,California,92703,-117.8961,33.7454
S MAIN ST,SANTA ANA,CA,California,92701,-117.8678,33.7348
CITY BLVD W,ORANGE,CA,California,92868,-117.8927,33.7803
W 17TH ST,SANTA ANA,CA,California,92706,-117.8758,33.7597
E MCFADDEN AVE,SANTA ANA,CA,California,92705,-117.844,33.7332
RED HILL AVE,TUSTIN,CA,California,92780,-117.8214,33.7277
NEWPORT AVE,TUSTIN,CA,California,92780,-117.8176,33.7417
E 17TH ST,SANTA ANA,CA,California,92701,-117.8524,33.7603
N TUSTIN AVE,SANTA ANA,CA,California,92705,-117.8358,33.7691
17TH ST,TUSTIN,CA,California,92780,-117.8269,33.7597
CULVER DR,IRVINE,CA,California,92604,-117.7867,33.7058
E BALL RD,ANAHEIM,CA,California,92806,-117.8873,33.8181
S STATE COLLEGE BLVD,ANAHEIM,CA,California,92806,-117.8888,33.8406
W CHAPMAN AVE,ORANGE,CA,California,92866,-117.8561,33.7877
E CHAPMAN AVE,ORANGE,CA,California,92869,-117.8212,33.7881
N TUSTIN ST,ORANGE,CA,California,92865,-117.8356,33.8227
W IMPERIAL HWY,BREA,CA,California,92821,-117.9075,33.9177
E YORBA LINDA BLVD,PLACENTIA,CA,California,92870,-117.848,33.8897
YORBA LINDA BLVD,YORBA LINDA,CA,California,92886,-117.7909,33.8888
E SANTA ANA CANYON RD,ANAHEIM,CA,California,92808,-117.7447,33.8683
SANTA MARGARITA PKWY,MISSION VIEJO,CA,California,92691,-117.6455,33.6523
W FOOTHILL PKWY,CORONA,CA,California,92882,-117.5748,33.844
W 6TH ST,CORONA,CA,California,92882,-117.583,33.8775
CALIFORNIA AVE,CORONA,CA,California,92881,-117.544,33.8622
HAMNER AVE,NORCO,CA,California,92860,-117.5605,33.9087
N MCKINLEY ST,CORONA,CA,California,92879,-117.5161,33.8857
LA SIERRA AVE,RIVERSIDE,CA,California,92505,-117.4891,33.9194
LA SIERRA AVE,RIVERSIDE,CA,California,92505,-117.4874,33.9173
NOGALES ST,ROWLAND HEIGHTS,CA,California,91748,-117.8892,33.9856
S NOGALES ST,WEST COVINA,CA,California,91792,-117.8864,34.011
NOGALES AVE,WALNUT,CA,California,91789,-117.8935,34.0247
GRAND AVE,DIAMOND BAR,CA,California,91765,-117.8098,33.9998
CHINO AVE,CHINO HILLS,CA,California,91709,-117.7416,34.0106
GRAND AVE,CHINO HILLS,CA,California,91709,-117.7262,34.0012
S GAREY AVE,POMONA,CA,California,91766,-117.7487,34.0307
E EASTLAND CENTER DR,WEST COVINA,CA,California,91791,-117.8851,34.0728
E SAN BERNARDINO RD,COVINA,CA,California,91723,-117.8817,34.0905
W ARROW HWY,COVINA,CA,California,91722,-117.9051,34.1064
N CITRUS AVE,AZUSA,CA,California,91702,-117.8906,34.1275
W ARROW HWY,SAN DIMAS,CA,California,91773,-117.8192,34.1068
E ALOSTA AVE,GLENDORA,CA,California,91740,-117.8391,34.129
E ROUTE 66,GLENDORA,CA,California,91740,-117.839,34.1293
N GAREY AVE,POMONA,CA,California,91767,-117.7496,34.0903
FOOTHILL BLVD,LA VERNE,CA,California,91750,-117.7628,34.1125
ARCHIBALD ST,CORONA,CA,California,92880,-117.593,33.9595
PHILADELPHIA ST,CHINO,CA,California,91710,-117.6857,34.0337
S ARCHIBALD AVE,ONTARIO,CA,California,91761,-117.5938,34.027
LIMONITE AVE,MIRA LOMA,CA,California,91752,-117.5545,33.9753
GALENA ST,RIVERSIDE,CA,California,92509,-117.4991,34.0037
CHERRY AVE,FONTANA,CA,California,92337,-117.4865,34.0414
N MOUNTAIN AVE,ONTARIO,CA,California,91762,-117.6701,34.0782
N EUCLID AVE,ONTARIO,CA,California,91762,-117.6517,34.0712
W FOOTHILL BLVD,UPLAND,CA,California,91786,-117.6719,34.1075
ARCHIBALD AVE,RANCHO CUCAMONGA,CA,California,91730,-117.593,34.1083
ARCHIBALD AVE,ALTA LOMA,CA,California,91701,-117.5936,34.1235
E GUASTI RD,ONTARIO,CA,California,91761,-117.5614,34.0655
BASELINE AVE,FONTANA,CA,California,92336,-117.5105,34.1216
FOOTHILL BLVD,ETIWANDA,CA,California,91739,-117.5262,34.1059
OCEANSIDE BLVD,OCEANSIDE,CA,California,92054,-117.3589,33.1937
MISSION AVE,OCEANSIDE,CA,California,92058,-117.364,33.2043
VISTA WAY,OCEANSIDE,CA,California,92054,-117.3321,33.1833
EL CAMINO REAL,CARLSBAD,CA,California,92008,-117.3265,33.178
OCEANSIDE BLVD,OCEANSIDE,CA,California,92056,-117.2858,33.2082
N REDONDO DR,OCEANSIDE,CA,California,92057,-117.3002,33.2556
CAMP DEL MAR ST,CAMP PENDLETON,CA,California,92055,-117.4258,33.354
W SAN MARCOS BLVD,SAN MARCOS,CA,California,92078,-117.2098,33.1319
CANNON RD,OCEANSIDE,CA,California,92056,-117.2533,33.1717
E VISTA WAY,VISTA,CA,California,92084,-117.2261,33.2228
E VISTA WAY,VISTA,CA,California,92084,-117.2261,33.219
CENTER DR,SAN MARCOS,CA,California,92069,-117.1217,33.1339
W FELICITA AVE,ESCONDIDO,CA,California,92025,-117.0754,33.1046
E VALLEY PKWY,ESCONDIDO,CA,California,92027,-117.0571,33.1345
S MISSION RD,FALLBROOK,CA,California,92028,-117.2521,33.3703
RANCHO CALIFORNIA RD,TEMECULA,CA,California,92591,-117.1437,33.5066
TEMECULA PKWY,TEMECULA,CA,California,92592,-117.0796,33.4858
CALIFORNIA OAKS RD,MURRIETA,CA,California,92562,-117.206,33.5671
HANCOCK AVE,MURRIETA,CA,California,92562,-117.1824,33.5717
NICOLAS RD,TEMECULA,CA,California,92591,-117.1429,33.5384
STANDORD,HEMET,CA,California,92544,-116.9373,33.533
DE PALMA RD,CORONA,CA,California,92883,-117.454,33.7477
RIVERSIDE DR,LAKE ELSINORE,CA,California,92530,-117.3659,33.6848
CASINO DR,LAKE ELSINORE,CA,California,92530,-117.2967,33.6587
LA SIERRA AVE,RIVERSIDE,CA,California,92503,-117.4707,33.8966
MAGNOLIA AVE,RIVERSIDE,CA,California,92503,-117.4502,33.9179
VAN BUREN BLVD,RIVERSIDE,CA,California,92508,-117.3307,33.8877
N PERRIS BLVD,PERRIS,CA,California,92571,-117.2249,33.8027
PERRIS BLVD,MORENO VALLEY,CA,California,92551,-117.2255,33.8893
ALESSANDRO BLVD,MORENO VALLEY,CA,California,92553,-117.2426,33.9166
ARLINGTON AVE,RIVERSIDE,CA,California,92506,-117.3814,33.9464
MISSION BLVD,RIVERSIDE,CA,California,92509,-117.4367,34.0115
CANYON CREST DR,RIVERSIDE,CA,California,92507,-117.3298,33.9566
UNIVERSITY AVE,RIVERSIDE,CA,California,92501,-117.3706,33.9805
UNIVERSITY AVE,RIVERSIDE,CA,California,92507,-117.3438,33.976
E WASHINGTON ST,COLTON,CA,California,92324,-117.2926,34.0508
SIERRA AVE,FONTANA,CA,California,92335,-117.4357,34.0849
VALLEY BLVD,FONTANA,CA,California,92335,-117.4364,34.0699
SLOVER AVE,FONTANA,CA,California,92337,-117.4343,34.0649
FOOTHILL BLVD,FONTANA,CA,California,92335,-117.4543,34.1065
SIERRA LAKES PKWY,FONTANA,CA,California,92336,-117.4355,34.1388
,FONTANA,CA,California,92336,-117.46,34.1386
SUMMIT AVE,FONTANA,CA,California,92336,-117.4724,34.1522
S RIVERSIDE AVE,RIALTO,CA,California,92376,-117.3704,34.0962
W BASE LINE RD,RIALTO,CA,California,92376,-117.3734,34.1224
S MOUNT VERNON AVE,SAN BERNARDINO,CA,California,92410,-117.3135,34.0903
W ORANGE SHOW RD,SAN BERNARDINO,CA,California,92408,-117.292,34.0785
W BASE LINE ST,SAN BERNARDINO,CA,California,92410,-117.2917,34.1216
KENDALL DR,SAN BERNARDINO,CA,California,92407,-117.3064,34.165
PIGEON PASS RD,MORENO VALLEY,CA,California,92557,-117.2621,33.947
MORENO BEACH DR,MORENO VALLEY,CA,California,92555,-117.1793,33.935
E REDLANDS BLVD,REDLANDS,CA,California,92373,-117.1695,34.0473
YUCAIPA BLVD,YUCAIPA,CA,California,92399,-117.0558,34.0334
W COLTON AVE,REDLANDS,CA,California,92374,-117.2041,34.0626
BOULDER AVE,HIGHLAND,CA,California,92346,-117.1954,34.1233
E HIGHLAND AVE,SAN BERNARDINO,CA,California,92404,-117.2645,34.1362
E STETSON AVE,HEMET,CA,California,92543,-116.9705,33.7297
STANFORD ST,HEMET,CA,California,92544,-116.9331,33.747
N STATE ST,SAN JACINTO,CA,California,92583,-116.9722,33.7938
W RAMSEY ST,BANNING,CA,California,92220,-116.8969,33.9249
FOOTHILL BLVD,SUNLAND,CA,California,91040,-118.3147,34.26
FOOTHILL BLVD,LA CRESCENTA,CA,California,91214,-118.2542,34.2331
FOOTHILL BLVD,LA CANADA FLTRDG,CA,California,91011,-118.1993,34.2037
E PALMDALE BLVD,PALMDALE,CA,California,93550,-118.1271,34.5796
W AVENUE N,LANCASTER,CA,California,93536,-118.2198,34.6309
W AVENUE L,LANCASTER,CA,California,93534,-118.165,34.6604
W AVENUE K,LANCASTER,CA,California,93534,-118.1526,34.6748
10TH ST W,LANCASTER,CA,California,93534,-118.1475,34.6983
47TH ST E,PALMDALE,CA,California,93552,-118.044,34.5714
47TH ST E,PALMDALE,CA,California,93552,-118.0445,34.5597
E AVENUE J,LANCASTER,CA,California,93535,-118.0957,34.6896
PHELAN RD,PHELAN,CA,California,92371,-117.575,34.426
W ROSAMOND BLVD,ROSAMOND,CA,California,93560,-118.1673,34.8644
BLDG 7210,EDWARDS AFB,CA,California,93524,-117.8985,34.936
HESPERIA RD,VICTORVILLE,CA,California,92395,-117.2913,34.4724
BEAR VALLEY RD,APPLE VALLEY,CA,California,92308,-117.2097,34.4714
US HIGHWAY 18,APPLE VALLEY,CA,California,92307,-117.2591,34.5396
ARMORY RD,BARSTOW,CA,California,92311,-117.0239,34.8845
GOLDSTONE RD,FORT IRWIN,CA,California,92310,-116.6985,35.2617
S PALM CANYON DR,PALM SPRINGS,CA,California,92264,-116.545,33.807
N PALM CANYON DR,PALM SPRINGS,CA,California,92262,-116.5472,33.8433
DATE PALM DR,CATHEDRAL CITY,CA,California,92234,-116.4586,33.7986
HIGHWAY 111,PALM DESERT,CA,California,92260,-116.4018,33.7279
AVENUE 46,INDIO,CA,California,92201,-116.2346,33.7151
JACKSON ST,INDIO,CA,California,92203,-116.217,33.74
PALM DR,DESERT HOT SPGS,CA,California,92240,-116.5019,33.9447
29 PALMS HWY,YUCCA VALLEY,CA,California,92284,-116.398,34.1282
HARRISON ST,COACHELLA,CA,California,92236,-116.1813,33.6873
29 PALMS HWY,TWENTYNINE PALMS,CA,California,92277,-116.0803,34.1359
BAKER BLVD,BAKER,CA,California,92309,-116.069,35.2683
N CHINA LAKE BLVD,RIDGECREST,CA,California,93555,-117.6703,35.644
PAHRUMP VALLEY BLVD,PAHRUMP,NV,Nevada,89048,-115.991,36.2061
HC 31,JEAN,NV,Nevada,89019,-115.6536,35.8277
BLUE DIAMOND RD,LAS VEGAS,NV,Nevada,89178,-115.2677,36.0203
S RAINBOW BLVD,LAS VEGAS,NV,Nevada,89139,-115.2437,36.0496
SOUTHERN HIGHLANDS PKWY,LAS VEGAS,NV,Nevada,89141,-115.2075,35.9982
BICENTENNIAL PKWY,HENDERSON,NV,Nevada,89044,-115.116,35.943
S EASTERN AVE,HENDERSON,NV,Nevada,89052,-115.1072,35.9992
S EASTERN AVE,LAS VEGAS,NV,Nevada,89123,-115.1182,36.0414
W WARM SPRINGS RD,HENDERSON,NV,Nevada,89014,-115.0404,36.0567
S BOULDER HWY,HENDERSON,NV,Nevada,89015,-114.9703,36.0298
E HORIZON DR,HENDERSON,NV,Nevada,89015,-114.9647,36.0122
W TROPICANA AVE,LAS VEGAS,NV,Nevada,89147,-115.3052,36.1009
W CHARLESTON BLVD,LAS VEGAS,NV,Nevada,89135,-115.3195,36.1595
W SAHARA AVE,LAS VEGAS,NV,Nevada,89117,-115.2931,36.1444
S RAINBOW BLVD,LAS VEGAS,NV,Nevada,89146,-115.2435,36.1522
N RAMPART BLVD,LAS VEGAS,NV,Nevada,89128,-115.2822,36.2018
S DECATUR BLVD,LAS VEGAS,NV,Nevada,89118,-115.208,36.0945
W FLAMINGO RD,LAS VEGAS,NV,Nevada,89103,-115.2321,36.115
PARADISE RD,LAS VEGAS,NV,Nevada,89109,-115.1548,36.136
S MARYLAND PKWY,LAS VEGAS,NV,Nevada,89109,-115.1376,36.1387
W SAHARA AVE,LAS VEGAS,NV,Nevada,89102,-115.1824,36.144
S DECATUR BLVD,LAS VEGAS,NV,Nevada,89107,-115.2062,36.1704
SMOKE RANCH RD,LAS VEGAS,NV,Nevada,89108,-115.2225,36.2031
W LAKE MEAD BLVD,LAS VEGAS,NV,Nevada,89108,-115.2255,36.1959
W ANN RD,LAS VEGAS,NV,Nevada,89130,-115.2484,36.2631
N DURANGO DR,LAS VEGAS,NV,Nevada,89149,-115.2877,36.291
W CRAIG RD,LAS VEGAS,NV,Nevada,89130,-115.211,36.2387
EMERITUS CIR,NORTH LAS VEGAS,NV,Nevada,89032,-115.1827,36.2217
W ANN RD,NORTH LAS VEGAS,NV,Nevada,89031,-115.1815,36.2616
N COMMERCE ST,NORTH LAS VEGAS,NV,Nevada,89031,-115.1441,36.2742
N DECATUR BLVD,LAS VEGAS,NV,Nevada,89131,-115.2072,36.313
E TROPICANA AVE,LAS VEGAS,NV,Nevada,89121,-115.1138,36.0996
E DESERT INN RD,LAS VEGAS,NV,Nevada,89121,-115.1083,36.1304
E TROPICANA AVE,LAS VEGAS,NV,Nevada,89121,-115.0653,36.1004
BOULDER HWY,LAS VEGAS,NV,Nevada,89122,-115.0322,36.084
BOULDER HWY,LAS VEGAS,NV,Nevada,89121,-115.0681,36.1153
E CHARLESTON BLVD,LAS VEGAS,NV,Nevada,89104,-115.1243,36.1588
E LAKE MEAD BLVD,NORTH LAS VEGAS,NV,Nevada,89030,-115.1152,36.1952
E SAHARA AVE,LAS VEGAS,NV,Nevada,89142,-115.0625,36.1444
N NELLIS BLVD,LAS VEGAS,NV,Nevada,89110,-115.062,36.1692
E LAKE MEAD BLVD,LAS VEGAS,NV,Nevada,89156,-115.0217,36.1962
LAS VEGAS BLVD N,LAS VEGAS,NV,Nevada,89115,-115.0985,36.2148
LAS VEGAS BLVD N,LAS VEGAS,NV,Nevada,89115,-115.0814,36.2248
E CRAIG RD,NORTH LAS VEGAS,NV,Nevada,89030,-115.0981,36.241
SAN LUIS PLAZA DR,SAN LUIS,AZ,Arizona,85349,-114.7845,32.4894
E 32ND ST,YUMA,AZ,Arizona,85365,-114.6151,32.6699
S 4TH AVE,YUMA,AZ,Arizona,85364,-114.6242,32.6941
N 2ND AVE,AJO,AZ,Arizona,85321,-112.8734,32.3768
N JOHN WAYNE PKWY,MARICOPA,AZ,Arizona,85139,-112.0445,33.0715
N TOHONO DR,ELOY,AZ,Arizona,85131,-111.6149,32.7732
E FLORENCE BLVD,CASA GRANDE,AZ,Arizona,85122,-111.7447,32.8799
N ARIZONA BLVD,COOLIDGE,AZ,Arizona,85128,-111.5237,32.9779
N GRAND AVE,NOGALES,AZ,Arizona,85621,-110.9331,31.3425
S NOGALES HWY,GREEN VALLEY,AZ,Arizona,85614,-110.9834,31.9079
E FRY BLVD,SIERRA VISTA,AZ,Arizona,85635,-110.2897,31.5541
E FRY BLVD,SIERRA VISTA,AZ,Arizona,85635,-110.26,31.554
N SILVERBELL RD,TUCSON,AZ,Arizona,85743,-111.1132,32.3563
W VALENCIA RD,TUCSON,AZ,Arizona,85746,-111.0059,32.1337
W VALENCIA RD,TUCSON,AZ,Arizona,85746,-111.0065,32.1333
W AJO WAY,TUCSON,AZ,Arizona,85713,-110.9807,32.1775
S 6TH AVE,TUCSON,AZ,Arizona,85714,-110.9679,32.1776
W SAINT MARYS RD,TUCSON,AZ,Arizona,85745,-110.9975,32.2293
E SPEEDWAY BLVD,TUCSON,AZ,Arizona,85711,-110.9664,32.2359
E IRVINGTON RD,TUCSON,AZ,Arizona,85714,-110.9396,32.1636
N CAMPBELL AVE,TUCSON,AZ,Arizona,85719,-110.9444,32.2605
E SPEEDWAY BLVD,TUCSON,AZ,Arizona,85712,-110.8919,32.2359
E 22ND ST,TUCSON,AZ,Arizona,85710,-110.8567,32.2072
E PIMA ST,TUCSON,AZ,Arizona,85712,-110.8665,32.2429
S HOUGHTON RD,TUCSON,AZ,Arizona,85747,-110.7728,32.1039
E GOLF LINKS RD,TUCSON,AZ,Arizona,85730,-110.7879,32.1915
E SPEEDWAY BLVD,TUCSON,AZ,Arizona,85710,-110.8415,32.2353
E TANQUE VERDE RD,TUCSON,AZ,Arizona,85749,-110.802,32.258
N ORACLE RD,TUCSON,AZ,Arizona,85705,-110.9773,32.2772
N ORACLE RD,TUCSON,AZ,Arizona,85704,-110.9773,32.3158
N LA CHOLLA BLVD,TUCSON,AZ,Arizona,85741,-111.0132,32.3455
W REX ALLEN DR,WILLCOX,AZ,Arizona,85643,-109.8394,32.2647
E 16TH ST,DOUGLAS,AZ,Arizona,85607,-109.5573,31.3509
W THATCHER BLVD,SAFFORD,AZ,Arizona,85546,-109.7231,32.8342
POPE & US HIGHWAY 180,SILVER CITY,NM,New Mexico,88061,-108.2756,32.7798
HWY 180,BAYARD,NM,New Mexico,88023,-108.1395,32.7577
TOM FOY BLVD,BAYARD,NM,New Mexico,88023,-108.1333,32.762
S LOVEKIN BLVD,BLYTHE,CA,California,92225,-114.6063,33.6091
S CALIFORNIA AVE,PARKER,AZ,Arizona,85344,-114.2892,34.1502
SWANSON AVE,LAKE HAVASU CITY,AZ,Arizona,86403,-114.3408,34.4682
KIOWA BLVD N,LAKE HAVASU CITY,AZ,Arizona,86404,-114.3128,34.5107
S HIGHWAY 95,FORT MOHAVE,AZ,Arizona,86426,-114.598,35.0161
HIGHWAY 95,BULLHEAD CITY,AZ,Arizona,86442,-114.593,35.12
CAL EDISON DR,LAUGHLIN,NV,Nevada,89029,-114.6173,35.1351
S CASINO DR,LAUGHLIN,NV,Nevada,89029,-114.5718,35.1664
E ANDY DEVINE AVE,KINGMAN,AZ,Arizona,86401,-114.0061,35.2221
N STOCKTON HILL RD,KINGMAN,AZ,Arizona,86401,-114.035,35.212
E ANDY DEVINE AVE,KINGMAN,AZ,Arizona,86401,-114.0079,35.2203
E US HIGHWAY 85,BUCKEYE,AZ,Arizona,85326,-112.5706,33.3767
S WATSON RD,BUCKEYE,AZ,Arizona,85326,-112.558,33.4341
W ROOSEVELT ST,GOODYEAR,AZ,Arizona,85338,-112.3934,33.4569
W PHANTOM ST,LUKE AFB,AZ,Arizona,85309,-112.3606,33.5361
W BELL RD,SURPRISE,AZ,Arizona,85374,-112.4217,33.639
W CACTUS RD,SURPRISE,AZ,Arizona,85379,-112.3782,33.5942
W BELL RD,SURPRISE,AZ,Arizona,85374,-112.3542,33.6388
E WICKENBURG WAY,WICKENBURG,AZ,Arizona,85390,-112.7205,33.9692
E CHANDLER BLVD,PHOENIX,AZ,Arizona,85048,-112.0157,33.3046
W CHANDLER BLVD,CHANDLER,AZ,Arizona,85226,-111.9421,33.3058
W RAY RD,CHANDLER,AZ,Arizona,85226,-111.9293,33.3194
S 99TH AVE,TOLLESON,AZ,Arizona,85353,-112.2721,33.4219
N DYSART RD,AVONDALE,AZ,Arizona,85323,-112.3411,33.449
W INDIAN SCHOOL RD,PHOENIX,AZ,Arizona,85033,-112.2363,33.4943
W INDIAN SCHOOL RD,AVONDALE,AZ,Arizona,85392,-112.2893,33.4936
W BASELINE RD,LAVEEN,AZ,Arizona,85339,-112.1738,33.3783
N 75TH AVE,PHOENIX,AZ,Arizona,85035,-112.2208,33.4686
W INDIAN SCHOOL RD,PHOENIX,AZ,Arizona,85033,-112.2016,33.4948
N 43RD AVE,PHOENIX,AZ,Arizona,85009,-112.1519,33.4646
W CAMELBACK RD,PHOENIX,AZ,Arizona,85019,-112.1366,33.5099
W GLENDALE AVE,GLENDALE,AZ,Arizona,85307,-112.3414,33.5363
W PEORIA AVE,PEORIA,AZ,Arizona,85345,-112.2561,33.5804
W BELL RD,SUN CITY,AZ,Arizona,85351,-112.2763,33.6394
W BETHANY HOME RD,GLENDALE,AZ,Arizona,85301,-112.202,33.5243
W GLENDALE AVE,GLENDALE,AZ,Arizona,85301,-112.1521,33.5389
N 43RD AVE,GLENDALE,AZ,Arizona,85302,-112.1522,33.5659
W PEORIA AVE,PEORIA,AZ,Arizona,85345,-112.2042,33.5827
W BELL RD,GLENDALE,AZ,Arizona,85308,-112.2263,33.6387
W BELL RD,GLENDALE,AZ,Arizona,85308,-112.1843,33.6383
N 35TH AVE,PHOENIX,AZ,Arizona,85029,-112.1343,33.6097
S CENTRAL AVE,PHOENIX,AZ,Arizona,85040,-112.0726,33.3986
W MCDOWELL RD,PHOENIX,AZ,Arizona,85007,-112.0928,33.4661
W INDIAN SCHOOL RD,PHOENIX,AZ,Arizona,85015,-112.0995,33.4948
E JEFFERSON ST,PHOENIX,AZ,Arizona,85004,-112.0713,33.4459
N 16TH ST,PHOENIX,AZ,Arizona,85006,-112.0476,33.4794
S 48TH ST,PHOENIX,AZ,Arizona,85040,-111.9789,33.4053
W BROADWAY RD,TEMPE,AZ,Arizona,85282,-111.9502,33.4076
E THOMAS RD,PHOENIX,AZ,Arizona,85018,-112.0038,33.4807
N GOLDWATER BLVD,SCOTTSDALE,AZ,Arizona,85251,-111.927,33.4892
N 19TH AVE,PHOENIX,AZ,Arizona,85021,-112.0997,33.5551
N 16TH ST,PHOENIX,AZ,Arizona,85016,-112.0475,33.5229
W THUNDERBIRD RD,PHOENIX,AZ,Arizona,85023,-112.1137,33.6113
E THUNDERBIRD RD,PHOENIX,AZ,Arizona,85022,-112.0678,33.6077
E BELL RD,PHOENIX,AZ,Arizona,85032,-112.0293,33.641
N SCOTTSDALE RD,SCOTTSDALE,AZ,Arizona,85253,-111.9272,33.5798
E CACTUS RD,PHOENIX,AZ,Arizona,85032,-112.0152,33.5969
S GILBERT RD,CHANDLER,AZ,Arizona,85249,-111.7909,33.2341
W CHANDLER BLVD,CHANDLER,AZ,Arizona,85224,-111.8748,33.3059
S ALMA SCHOOL RD,CHANDLER,AZ,Arizona,85286,-111.8587,33.2626
E GUADALUPE RD,TEMPE,AZ,Arizona,85283,-111.9132,33.3644
N ARIZONA AVE,CHANDLER,AZ,Arizona,85225,-111.8421,33.321
W ELLIOT RD,CHANDLER,AZ,Arizona,85225,-111.8587,33.3481
S VAL VISTA DR,GILBERT,AZ,Arizona,85296,-111.755,33.3339
E HUNT HWY,SAN TAN VALLEY,AZ,Arizona,85143,-111.5618,33.1597
E BELLA VISTA RD,QUEEN CREEK,AZ,Arizona,85143,-111.5554,33.1618
E RITTENHOUSE RD,QUEEN CREEK,AZ,Arizona,85142,-111.6251,33.2476
S POWER RD,QUEEN CREEK,AZ,Arizona,85142,-111.6856,33.2801
E BROADWAY RD,TEMPE,AZ,Arizona,85282,-111.9106,33.408
W BASELINE RD,MESA,AZ,Arizona,85202,-111.8722,33.3778
W MAIN ST,MESA,AZ,Arizona,85201,-111.8722,33.4145
S COUNTRY CLUB DR,MESA,AZ,Arizona,85210,-111.8406,33.3943
E MCDOWELL RD,SCOTTSDALE,AZ,Arizona,85257,-111.9124,33.4659
E MCDOWELL RD,SCOTTSDALE,AZ,Arizona,85257,-111.9056,33.4664
E BASELINE RD,MESA,AZ,Arizona,85204,-111.787,33.3794
E BROADWAY RD,MESA,AZ,Arizona,85204,-111.7743,33.4081
E MCKELLIPS RD,MESA,AZ,Arizona,85213,-111.772,33.4518
E VIA LINDA,SCOTTSDALE,AZ,Arizona,85259,-111.8384,33.5878
E BASELINE RD,MESA,AZ,Arizona,85206,-111.6896,33.3793
E MAIN ST,MESA,AZ,Arizona,85207,-111.6287,33.4151
E BASELINE RD,MESA,AZ,Arizona,85209,-111.6383,33.3784
S PHELPS DR,APACHE JUNCTION,AZ,Arizona,85120,-111.5509,33.4127
N LAKE PLEASANT PKWY,PEORIA,AZ,Arizona,85382,-112.2779,33.6785
N 67TH AVE,GLENDALE,AZ,Arizona,85308,-112.2012,33.6703
W ANTHEM WAY,ANTHEM,AZ,Arizona,85086,-112.1366,33.8665
N NORTH VALLEY PKWY,PHOENIX,AZ,Arizona,85086,-112.1294,33.7989
N 27TH AVE,PHOENIX,AZ,Arizona,85027,-112.118,33.6703
N 7TH ST,PHOENIX,AZ,Arizona,85022,-112.0661,33.6543
N TATUM BLVD,CAVE CREEK,AZ,Arizona,85331,-111.9926,33.756
W IRON SPRINGS RD,PRESCOTT,AZ,Arizona,86305,-112.4863,34.5614
MARKETPLACE DR,CHINO VALLEY,AZ,Arizona,86323,-112.4539,34.7687
S MAIN ST,COTTONWOOD,AZ,Arizona,86326,-112.0106,34.7303
N GRAND CANYON BLVD,WILLIAMS,AZ,Arizona,86046,-112.1922,35.2582
S MILTON RD,FLAGSTAFF,AZ,Arizona,86001,-111.6611,35.1816
N US HIGHWAY 89,FLAGSTAFF,AZ,Arizona,86004,-111.5846,35.2236
NEVADA HWY,BOULDER CITY,NV,Nevada,89005,-114.8495,35.9724
W PIONEER BLVD,MESQUITE,NV,Nevada,89027,-114.0844,36.8113
S BLUFF ST,ST GEORGE,UT,Utah,84770,-113.5864,37.0918
W SUNSET BLVD,ST GEORGE,UT,Utah,84770,-113.6242,37.1232
N 3050 E,ST GEORGE,UT,Utah,84790,-113.5229,37.1248
S 100 E,KANAB,UT,Utah,84741,-112.5258,37.0409
E ASH ST,GLOBE,AZ,Arizona,85501,-110.7722,33.396
E STATE HIGHWAY 260,PAYSON,AZ,Arizona,85541,-111.3227,34.2406
MIKES PIKE ST,WINSLOW,AZ,Arizona,86047,-110.7003,35.0412
S WHITE MOUNTAIN RD,SHOW LOW,AZ,Arizona,85901,-110.0246,34.2092
N MAIN ST,TAYLOR,AZ,Arizona,85939,-110.0883,34.4729
N MAIN ST,TAYLOR,AZ,Arizona,85939,-110.0881,34.4742
NAVAJO BLVD,HOLBROOK,AZ,Arizona,86025,-110.1492,34.9213
NAVAJO BLVD,HOLBROOK,AZ,Arizona,86025,-110.1517,34.918
S LAKE POWELL BLVD,PAGE,AZ,Arizona,86040,-111.4598,36.9184
US HIGHWAY 491,GALLUP,NM,New Mexico,87301,-108.7594,35.5324
E HISTORIC HIGHWAY 66,GALLUP,NM,New Mexico,87301,-108.7195,35.5301
W MAIN ST,FARMINGTON,NM,New Mexico,87401,-108.2133,36.7287
E 20TH ST,FARMINGTON,NM,New Mexico,87402,-108.1698,36.7485
E MAIN ST,CORTEZ,CO,Colorado,81321,-108.5709,37.3483
W EXPRESSWAY 83,MISSION,TX,Texas,78572,-98.4063,26.2383
E EXPRESSWAY 83,MISSION,TX,Texas,78572,-98.3249,26.2012
S MCCOLL RD,MCALLEN,TX,Texas,78503,-98.2164,26.1838
E 9TH ST,MISSION,TX,Texas,78572,-98.3169,26.214
E GRIFFIN PKWY,MISSION,TX,Texas,78572,-98.2871,26.2247
S 10TH ST,MCALLEN,TX,Texas,78501,-98.2307,26.1995
N 23RD ST,MCALLEN,TX,Texas,78501,-98.2424,26.2254
N 10TH ST,MCALLEN,TX,Texas,78501,-98.2245,26.2359
W DOVE AVE,MCALLEN,TX,Texas,78504,-98.2186,26.2534
S CAGE BLVD,PHARR,TX,Texas,78577,-98.1866,26.1806
W US HIGHWAY 83,PHARR,TX,Texas,78577,-98.1961,26.1967
N NEBRASKA AVE,SAN JUAN,TX,Texas,78589,-98.1537,26.1976
N ALAMO RD,ALAMO,TX,Texas,78516,-98.1222,26.1891
HOOKS AVE,DONNA,TX,Texas,78537,-98.0495,26.1701
E HIGHWAY 83,DONNA,TX,Texas,78537,-98.0472,26.1806
W BUSINESS 83,WESLACO,TX,Texas,78596,-97.998,26.1603
N TEXAS BLVD,WESLACO,TX,Texas,78599,-97.9905,26.1741
W 2ND ST,MERCEDES,TX,Texas,78570,-97.9186,26.1499
SANTA URSULA AVE,LAREDO,TX,Texas,78040,-99.5038,27.5184
SAN BERNARDO AVE,LAREDO,TX,Texas,78041,-99.5039,27.5454
MINES RD,LAREDO,TX,Texas,78045,-99.509,27.5837
PENA ST,CARRIZO SPRINGS,TX,Texas,78834,-99.8583,28.5216
US HIGHWAY 83,ZAPATA,TX,Texas,78076,-99.1923,26.8424
E GRANT ST,ROMA,TX,Texas,78584,-99.0083,26.4024
E US HIGHWAY 83,RIO GRANDE CITY,TX,Texas,78582,-98.7975,26.3703
N US HIGHWAY 83,ZAPATA,TX,Texas,78076,-99.2643,26.897
N CONWAY AVE,PALMHURST,TX,Texas,78573,-98.3112,26.301
S CLOSNER BLVD,EDINBURG,TX,Texas,78539,-98.1652,26.2856
E TRENTON RD,EDINBURG,TX,Texas,78539,-98.1696,26.2621
E TRENTON RD,EDINBURG,TX,Texas,78539,-98.1708,26.2618
W UNIVERSITY DR,EDINBURG,TX,Texas,78539,-98.1781,26.3033
W UNIVERSITY DR,EDINBURG,TX,Texas,78539,-98.1871,26.305
E EDINBURG AVE,ELSA,TX,Texas,78543,-97.9826,26.294
S SAINT MARYS ST,FALFURRIAS,TX,Texas,78355,-98.145,27.2183
PINE ST,LAREDO,TX,Texas,78046,-99.4738,27.4801
GUADALUPE ST,LAREDO,TX,Texas,78040,-99.4807,27.5063
E SAUNDERS ST,LAREDO,TX,Texas,78041,-99.4693,27.5302
MCPHERSON RD,LAREDO,TX,Texas,78041,-99.4821,27.5454
MCPHERSON RD,LAREDO,TX,Texas,78045,-99.4804,27.5994
LAS PALMAS BLVD,COTULLA,TX,Texas,78014,-99.2431,28.4455
14TH ST,KINGSVILLE,TX,Texas,78363,-97.8561,27.529
E MAIN ST,ALICE,TX,Texas,78332,-98.0489,27.7618
N STATE HIGHWAY 9,MATHIS,TX,Texas,78368,-97.8197,28.1082
NUECES ST,GEORGE WEST,TX,Texas,78022,-98.1143,28.3281
N HARBORTH AVE,THREE RIVERS,TX,Texas,78071,-98.1796,28.4687
SECURITY DR,BROWNSVILLE,TX,Texas,78521,-97.4693,25.9195
BOCA CHICA BLVD,BROWNSVILLE,TX,Texas,78521,-97.4865,25.9224
CENTRAL BLVD,BROWNSVILLE,TX,Texas,78520,-97.5105,25.9301
RUBEN TORRES SR BLVD,BROWNSVILLE,TX,Texas,78521,-97.5014,25.9498
S COMMERCE ST,HARLINGEN,TX,Texas,78550,-97.6813,26.1796
W TYLER AVE,HARLINGEN,TX,Texas,78550,-97.7159,26.1894
MORGAN BLVD,HARLINGEN,TX,Texas,78550,-97.6775,26.2013
W US HIGHWAY 77,SAN BENITO,TX,Texas,78586,-97.6358,26.1451
PADRE BLVD,S PADRE ISLAND,TX,Texas,78597,-97.1662,26.0984
STATE HIGHWAY 100,PORT ISABEL,TX,Texas,78578,-97.2204,26.0715
E HIDALGO AVE,RAYMONDVILLE,TX,Texas,78580,-97.7772,26.4823
S STAPLES ST,CORPUS CHRISTI,TX,Texas,78413,-97.3852,27.6844
SARATOGA BLVD,CORPUS CHRISTI,TX,Texas,78413,-97.3979,27.6923
S STAPLES ST,CORPUS CHRISTI,TX,Texas,78411,-97.3708,27.7132
MCARDLE RD,CORPUS CHRISTI,TX,Texas,78412,-97.3618,27.7078
W AVENUE J,ROBSTOWN,TX,Texas,78380,-97.6722,27.8006
LEOPARD ST,CORPUS CHRISTI,TX,Texas,78410,-97.5778,27.8416
AYERS ST,CORPUS CHRISTI,TX,Texas,78415,-97.42,27.7467
S STAPLES ST,CORPUS CHRISTI,TX,Texas,78411,-97.3873,27.7385
S STAPLES ST,CORPUS CHRISTI,TX,Texas,78404,-97.4028,27.765
LEOPARD ST,CORPUS CHRISTI,TX,Texas,78408,-97.4324,27.7968
S PADRE ISLAND DR,CORPUS CHRISTI,TX,Texas,78418,-97.2804,27.6668
US HIGHWAY 181,PORTLAND,TX,Texas,78374,-97.3227,27.8788
W WHEELER AVE,ARANSAS PASS,TX,Texas,78336,-97.1781,27.9249
W WHEELER AVE,ARANSAS PASS,TX,Texas,78336,-97.1552,27.912
STATE HIGHWAY 361,INGLESIDE,TX,Texas,78362,-97.2119,27.8828
STATE HIGHWAY 361,PORT ARANSAS,TX,Texas,78373,-97.0758,27.8163
W SINTON ST,SINTON,TX,Texas,78387,-97.5122,28.037
N WASHINGTON ST,BEEVILLE,TX,Texas,78102,-97.7549,28.4105
N SAINT MARYS ST,BEEVILLE,TX,Texas,78102,-97.7566,28.4225
HIGHWAY 35 N,ROCKPORT,TX,Texas,78382,-97.0422,28.0548
N MESA ST,EL PASO,TX,Texas,79932,-106.5753,31.8405
S DESERT BLVD,CANUTILLO,TX,Texas,79835,-106.5843,31.9108
N MESA ST,EL PASO,TX,Texas,79902,-106.5054,31.7791
N MESA ST,EL PASO,TX,Texas,79912,-106.532,31.8311
MONTANA AVE,EL PASO,TX,Texas,79903,-106.4269,31.784
DYER ST,EL PASO,TX,Texas,79904,-106.4446,31.8288
CARTER RD,FORT BLISS,TX,Texas,79906,-106.4223,31.8068
MONTANA AVE,EL PASO,TX,Texas,79925,-106.3948,31.7895
N RESLER DR,EL PASO,TX,Texas,79912,-106.5588,31.8618
KENWORTHY ST,EL PASO,TX,Texas,79924,-106.4382,31.9207
E CEDAR ST,DEMING,NM,New Mexico,88030,-107.7563,32.2702
N MOTEL BLVD,LAS CRUCES,NM,New Mexico,88007,-106.8118,32.2987
N MAIN ST,LAS CRUCES,NM,New Mexico,88001,-106.7816,32.3222
MAIN ST,ANTHONY,TX,Texas,79821,-106.6058,31.9967
MISSOURI AVE,LAS CRUCES,NM,New Mexico,88001,-106.7477,32.2977
N ZARAGOZA RD,EL PASO,TX,Texas,79907,-106.3206,31.7036
N LOOP DR,SOCORRO,TX,Texas,79927,-106.271,31.6558
N KENAZO AVE,HORIZON CITY,TX,Texas,79928,-106.1874,31.6848
GATEWAY BLVD E,EL PASO,TX,Texas,79915,-106.3468,31.7526
GEORGE DIETER DR,EL PASO,TX,Texas,79936,-106.3015,31.7651
N ZARAGOZA RD,EL PASO,TX,Texas,79936,-106.2873,31.7438
N ZARAGOZA RD,EL PASO,TX,Texas,79938,-106.2518,31.7769
N YARBROUGH DR,EL PASO,TX,Texas,79925,-106.3328,31.7969
SERGEANT MAJOR BLVD,FORT BLISS,TX,Texas,79916,-106.3433,31.8784
S WHITE SANDS BLVD,ALAMOGORDO,NM,New Mexico,88310,-105.9596,32.8846
W HIGHWAY 90,ALPINE,TX,Texas,79830,-103.6852,30.355
S CEDAR ST,PECOS,TX,Texas,79772,-103.4933,31.4238
E JIM SHARP BLVD,KERMIT,TX,Texas,79745,-103.0846,31.848
S CANAL ST,CARLSBAD,NM,New Mexico,88220,-104.2282,32.4074
W MAIN ST,ARTESIA,NM,New Mexico,88210,-104.4203,32.842
N TURNER ST,HOBBS,NM,New Mexico,88240,-103.1442,32.7229
,HOBBS,NM,New Mexico,88240,-103.1333,32.7235
S MAIN AVE,LOVINGTON,NM,New Mexico,88260,-103.3487,32.9428
W DICKINSON BLVD,FORT STOCKTON,TX,Texas,79735,-102.888,30.8939
S MAIN AVE,MONAHANS,TX,Texas,79756,-102.8915,31.59
LINDA AVE,ODESSA,TX,Texas,79763,-102.4092,31.8517
N COUNTY RD W,ODESSA,TX,Texas,79763,-102.3967,31.8625
ANDREWS HWY,ODESSA,TX,Texas,79761,-102.3795,31.8645
E 8TH ST,ODESSA,TX,Texas,79761,-102.3425,31.8618
E 42ND ST,ODESSA,TX,Texas,79762,-102.349,31.8899
E UNIVERSITY BLVD,ODESSA,TX,Texas,79762,-102.3197,31.8818
N MAIN ST,ANDREWS,TX,Texas,79714,-102.5497,32.3299
ANDREWS HWY,MIDLAND,TX,Texas,79703,-102.1356,32.0026
N MIDLAND DR,MIDLAND,TX,Texas,79707,-102.144,32.0283
ANDREWS HWY,MIDLAND,TX,Texas,79701,-102.1039,31.9967
W WADLEY AVE,MIDLAND,TX,Texas,79705,-102.1074,32.0242
W BROADWAY ST,DENVER CITY,TX,Texas,79323,-102.8309,32.9644
S MAIN ST,SEMINOLE,TX,Texas,79360,-102.645,32.7126
S GREGG ST,BIG SPRING,TX,Texas,79720,-101.4703,32.2282
N 4TH ST,LAMESA,TX,Texas,79331,-101.9515,32.7364
N DATE ST,TRUTH OR CNSQNCS,NM,New Mexico,87901,-107.2468,33.1508
N CALIFORNIA ST,SOCORRO,NM,New Mexico,87801,-106.8925,34.0659
W SANTA FE AVE,GRANTS,NM,New Mexico,87020,-107.8494,35.1507
S MAIN ST,BELEN,NM,New Mexico,87002,-106.7771,34.6592
I 25 BYPASS,BELEN,NM,New Mexico,87002,-106.7738,34.6971
MAIN ST NE,LOS LUNAS,NM,New Mexico,87031,-106.7018,34.8078
ISLETA BLVD SW,ALBUQUERQUE,NM,New Mexico,87105,-106.6814,35.0248
ISLETA BLVD SW,ALBUQUERQUE,NM,New Mexico,87105,-106.6803,35.0254
COORS BLVD SW,ALBUQUERQUE,NM,New Mexico,87121,-106.7135,35.0315
COORS BLVD NW,ALBUQUERQUE,NM,New Mexico,87121,-106.7079,35.097
COORS BLVD NW,ALBUQUERQUE,NM,New Mexico,87121,-106.7128,35.0806
LOMAS BLVD NW,ALBUQUERQUE,NM,New Mexico,87102,-106.6543,35.0912
4TH ST NW,ALBUQUERQUE,NM,New Mexico,87107,-106.6427,35.1312
WASHINGTON ST SE,ALBUQUERQUE,NM,New Mexico,87108,-106.595,35.0751
CARLISLE BLVD NE,ALBUQUERQUE,NM,New Mexico,87110,-106.6041,35.11
SAN MATEO BLVD NE,ALBUQUERQUE,NM,New Mexico,87110,-106.586,35.1155
MONTANO RD NW,ALBUQUERQUE,NM,New Mexico,87120,-106.6947,35.1534
SOUTHERN BLVD SE,RIO RANCHO,NM,New Mexico,87124,-106.6832,35.2411
PASEO DEL NORTE NE,ALBUQUERQUE,NM,New Mexico,87113,-106.5821,35.1726
SAN MATEO BLVD NE,ALBUQUERQUE,NM,New Mexico,87109,-106.5876,35.1457
DEBORAH RD SE,RIO RANCHO,NM,New Mexico,87124,-106.6567,35.235
CENTRAL AVE SE,ALBUQUERQUE,NM,New Mexico,87123,-106.5501,35.0736
JUAN TABO BLVD NE,ALBUQUERQUE,NM,New Mexico,87112,-106.5144,35.0901
EUBANK BLVD NE,ALBUQUERQUE,NM,New Mexico,87111,-106.5337,35.1315
WYOMING BLVD NE,ALBUQUERQUE,NM,New Mexico,87109,-106.5598,35.1598
WYOMING BLVD NE,ALBUQUERQUE,NM,New Mexico,87109,-106.5545,35.1462
SUDDERTH DR,RUIDOSO,NM,New Mexico,88345,-105.6548,33.3239
US ROUTE 66,MORIARTY,NM,New Mexico,87035,-106.0638,35.0095
W AZTEC BLVD,AZTEC,NM,New Mexico,87410,-107.996,36.8253
MAIN AVE,DURANGO,CO,Colorado,81301,-107.8671,37.3057
VILLAGE DR,PAGOSA SPRINGS,CO,Colorado,81147,-107.0706,37.2586
CERRILLOS RD,SANTA FE,NM,New Mexico,87507,-106.0173,35.6362
SAINT MICHAELS DR,SANTA FE,NM,New Mexico,87505,-105.9605,35.6578
N RIVERSIDE DR,ESPANOLA,NM,New Mexico,87532,-106.0636,35.9998
7TH ST,LAS VEGAS,NM,New Mexico,87701,-105.2235,35.6087
PASEO DEL PUEBLO SUR,TAOS,NM,New Mexico,87571,-105.5871,36.3837
S MAIN ST,ROSWELL,NM,New Mexico,88203,-104.523,33.374
N MAIN ST,ROSWELL,NM,New Mexico,88201,-104.5225,33.4341
N CHICAGO AVE,PORTALES,NM,New Mexico,88130,-103.3313,34.1914
W 21ST ST,CLOVIS,NM,New Mexico,88101,-103.2192,34.4198
N PRINCE ST,CLOVIS,NM,New Mexico,88101,-103.1961,34.4331
S 1ST ST,TUCUMCARI,NM,New Mexico,88401,-103.7248,35.1562
LUBBOCK RD,BROWNFIELD,TX,Texas,79316,-102.2744,33.1812
E STATE ROAD 114,LEVELLAND,TX,Texas,79336,-102.3625,33.594
HALL AVE,LITTLEFIELD,TX,Texas,79339,-102.3272,33.9088
82ND ST,WOLFFORTH,TX,Texas,79382,-101.9926,33.5192
74TH ST,LUBBOCK,TX,Texas,79424,-101.9077,33.527
50TH ST,LUBBOCK,TX,Texas,79414,-101.9173,33.5491
82ND ST,LUBBOCK,TX,Texas,79423,-101.8858,33.5193
82ND ST,LUBBOCK,TX,Texas,79424,-101.9054,33.5193
50TH ST,LUBBOCK,TX,Texas,79413,-101.8794,33.5482
QUAKER AVE,LUBBOCK,TX,Texas,79407,-101.9055,33.5772
19TH ST,LUBBOCK,TX,Texas,79401,-101.8614,33.5775
FRANKFORD AVE,LUBBOCK,TX,Texas,79416,-101.9392,33.5939
W DIVISION ST,SLATON,TX,Texas,79364,-101.66,33.4336
S BROADWAY ST,POST,TX,Texas,79356,-101.3782,33.187
PO BOX 1449,PLAINVIEW,TX,Texas,79073,-101.7018,34.1874
N INTERSTATE 27,PLAINVIEW,TX,Texas,79072,-101.749,34.1917
W AMERICAN BLVD,MULESHOE,TX,Texas,79347,-102.7373,34.2338
S BROADWAY ST,DIMMITT,TX,Texas,79027,-102.3125,34.5496
W 1ST ST,HEREFORD,TX,Texas,79045,-102.4108,34.8096
SW 2ND ST,TULIA,TX,Texas,79088,-101.7742,34.5356
23RD ST,CANYON,TX,Texas,79015,-101.9199,34.9822
S COULTER ST,AMARILLO,TX,Texas,79119,-101.9201,35.1465
W INTERSTATE 40,AMARILLO,TX,Texas,79106,-101.9161,35.1861
S WESTERN ST,AMARILLO,TX,Texas,79109,-101.8834,35.1544
S GEORGIA ST,AMARILLO,TX,Texas,79109,-101.8657,35.1871
S WESTERN ST,AMARILLO,TX,Texas,79106,-101.8846,35.2154
S GRAND ST,AMARILLO,TX,Texas,79103,-101.7959,35.1912
E INTERSTATE 40,AMARILLO,TX,Texas,79118,-101.7589,35.1916
NE 24TH AVE,AMARILLO,TX,Texas,79107,-101.7989,35.2365
NE 24TH AVE,AMARILLO,TX,Texas,79107,-101.8304,35.2363
N BUCHANAN ST,AMARILLO,TX,Texas,79107,-101.8286,35.2224
FREEDOM RD,TRINIDAD,CO,Colorado,81082,-104.4977,37.1858
S 1ST ST,CLAYTON,NM,New Mexico,88415,-103.1827,36.4491
S HIGHWAY 87,DALHART,TX,Texas,79022,-102.5183,36.0632
W WILSON ST,BORGER,TX,Texas,79007,-101.4076,35.6601
S DUMAS AVE,DUMAS,TX,Texas,79029,-101.9729,35.8502
S DUMAS AVE,DUMAS,TX,Texas,79029,-101.9729,35.8499
HWY 64 E,BOISE CITY,OK,Oklahoma,73933,-102.516,36.7187
NW 21ST ST,GUYMON,OK,Oklahoma,73942,-101.4846,36.7011
E HIGHWAY 54,GUYMON,OK,Oklahoma,73942,-101.4744,36.678
E 11TH ST,HUGOTON,KS,Kansas,67951,-101.3386,37.1703
E HIGHWAY 56,ELKHART,KS,Kansas,67950,-101.8907,37.0026
E MAIN ST,EAGLE PASS,TX,Texas,78852,-100.4783,28.7089
S BIBB AVE,EAGLE PASS,TX,Texas,78852,-100.4844,28.7033
S BIBB AVE,EAGLE PASS,TX,Texas,78852,-100.4832,28.7054
VETERANS BLVD,DEL RIO,TX,Texas,78840,-100.9059,29.3873
N HIGHWAY 83,CRYSTAL CITY,TX,Texas,78839,-99.8323,28.6933
E MAIN ST,UVALDE,TX,Texas,78801,-99.7785,29.2126
HIGHWAY 227 N,SONORA,TX,Texas,76950,-100.4554,30.1744
N OAK ST,PEARSALL,TX,Texas,78061,-99.0932,28.8986
E HONDO AVE,DEVINE,TX,Texas,78016,-98.8998,29.1368
19TH ST,HONDO,TX,Texas,78861,-99.1375,29.3475
US HIGHWAY 90 E,CASTROVILLE,TX,Texas,78009,-98.8604,29.3564
POTRANCO RD,SAN ANTONIO,TX,Texas,78253,-98.7134,29.4352
SW LOOP 410,SAN ANTONIO,TX,Texas,78227,-98.6504,29.4154
MARBACH RD,SAN ANTONIO,TX,Texas,78245,-98.6625,29.4184
STATE HIGHWAY 151,SAN ANTONIO,TX,Texas,78245,-98.6495,29.4383
GRISSOM RD,SAN ANTONIO,TX,Texas,78251,-98.6563,29.4796
TEZEL RD,SAN ANTONIO,TX,Texas,78250,-98.6624,29.5122
CULEBRA RD,SAN ANTONIO,TX,Texas,78251,-98.6822,29.491
N FM 1604 W,SAN ANTONIO,TX,Texas,78255,-98.667,29.6572
E STATE HIGHWAY 97,PLEASANTON,TX,Texas,78064,-98.4755,28.9714
N SUNSET STRIP ST,KENEDY,TX,Texas,78119,-97.8579,28.816
10TH ST,FLORESVILLE,TX,Texas,78114,-98.1691,29.1545
VALLEY HI DR,SAN ANTONIO,TX,Texas,78227,-98.6376,29.3818
VALLEY HI DR,SAN ANTONIO,TX,Texas,78227,-98.6371,29.382
SW MILITARY DR,SAN ANTONIO,TX,Texas,78224,-98.5357,29.3567
CALLAGHAN RD,SAN ANTONIO,TX,Texas,78228,-98.5996,29.4396
S GENERAL MCMULLEN DR,SAN ANTONIO,TX,Texas,78226,-98.5575,29.3982
W COMMERCE ST,SAN ANTONIO,TX,Texas,78207,-98.5428,29.4299
BANDERA RD,SAN ANTONIO,TX,Texas,78228,-98.5501,29.4535
SW MILITARY DR,SAN ANTONIO,TX,Texas,78221,-98.5079,29.3563
ROOSEVELT AVE,SAN ANTONIO,TX,Texas,78214,-98.4818,29.3603
GOLIAD RD,SAN ANTONIO,TX,Texas,78223,-98.4416,29.3668
S SANTA ROSA AVE,SAN ANTONIO,TX,Texas,78204,-98.4999,29.4187
SAN PEDRO AVE,SAN ANTONIO,TX,Texas,78212,-98.4989,29.4394
S HACKBERRY,SAN ANTONIO,TX,Texas,78210,-98.4735,29.3968
S WW WHITE RD,SAN ANTONIO,TX,Texas,78219,-98.405,29.4303
INGRAM RD,SAN ANTONIO,TX,Texas,78238,-98.6052,29.4667
BANDERA RD,SAN ANTONIO,TX,Texas,78238,-98.6248,29.5007
BABCOCK RD,SAN ANTONIO,TX,Texas,78240,-98.5988,29.5229
FREDERICKSBURG RD,SAN ANTONIO,TX,Texas,78201,-98.5478,29.4872
CALLAGHAN RD,SAN ANTONIO,TX,Texas,78229,-98.5721,29.4911
JACKSON KELLER RD,SAN ANTONIO,TX,Texas,78230,-98.534,29.5191
N LOOP 1604 W,SAN ANTONIO,TX,Texas,78249,-98.633,29.5879
WURZBACH RD,SAN ANTONIO,TX,Texas,78240,-98.5638,29.5301
WURZBACH RD,SAN ANTONIO,TX,Texas,78240,-98.5635,29.53
DE ZAVALA RD,SAN ANTONIO,TX,Texas,78249,-98.5739,29.5703
SAN PEDRO AVE,SAN ANTONIO,TX,Texas,78216,-98.4987,29.4997
NW LOOP 410,SAN ANTONIO,TX,Texas,78216,-98.5052,29.5202
AUSTIN HWY & RITTIMAN RD,SAN ANTONIO,TX,Texas,78209,-98.4574,29.4845
AUSTIN HWY,SAN ANTONIO,TX,Texas,78209,-98.453,29.4852
NACOGDOCHES RD,SAN ANTONIO,TX,Texas,78217,-98.4492,29.5196
WEST AVE,SAN ANTONIO,TX,Texas,78216,-98.5083,29.5473
SAN PEDRO AVE,SAN ANTONIO,TX,Texas,78232,-98.4737,29.5883
BLANCO RD,SAN ANTONIO,TX,Texas,78232,-98.5079,29.6044
HUEBNER RD,SAN ANTONIO,TX,Texas,78258,-98.4936,29.6274
CANYON GOLF RD,SAN ANTONIO,TX,Texas,78260,-98.4772,29.6894
WALZEM RD,WINDCREST,TX,Texas,78218,-98.3848,29.5106
RITTIMAN RD,SAN ANTONIO,TX,Texas,78218,-98.3625,29.4805
THOUSAND OAKS DR,SAN ANTONIO,TX,Texas,78217,-98.4109,29.553
NACOGDOCHES RD,SAN ANTONIO,TX,Texas,78247,-98.3781,29.5737
NACOGDOCHES RD,SAN ANTONIO,TX,Texas,78247,-98.3779,29.5735
FM 78,CONVERSE,TX,Texas,78109,-98.3087,29.5116
PAT BOOKER RD,UNIVERSAL CITY,TX,Texas,78148,-98.3036,29.5524
FM 3009,SCHERTZ,TX,Texas,78154,-98.2673,29.587
FM 78,SCHERTZ,TX,Texas,78154,-98.2547,29.5585
BULVERDE RD,SAN ANTONIO,TX,Texas,78259,-98.4249,29.6442
INTERSTATE 35 N,SCHERTZ,TX,Texas,78154,-98.2801,29.5992
US HIGHWAY 87 W,LA VERNIA,TX,Texas,78121,-98.1348,29.3579
W STATE HIGHWAY 46,NEW BRAUNFELS,TX,Texas,78132,-98.1657,29.7193
N BUSINESS IH 35,NEW BRAUNFELS,TX,Texas,78130,-98.0984,29.6977
E KINGSBURY ST,SEGUIN,TX,Texas,78155,-97.9525,29.5815
S HIGHWAY 123 BYP,SEGUIN,TX,Texas,78155,-97.9419,29.564
JUNCTION HWY,KERRVILLE,TX,Texas,78028,-99.1629,30.0578
S MAIN ST,BOERNE,TX,Texas,78006,-98.7241,29.7764
E MAIN ST,FREDERICKSBURG,TX,Texas,78624,-98.8574,30.2646
W YOUNG ST,LLANO,TX,Texas,78643,-98.679,30.7593
STATE HIGHWAY 46 W,SPRING BRANCH,TX,Texas,78070,-98.429,29.7993
FM 2325,WIMBERLEY,TX,Texas,78676,-98.1021,29.9993
BARNES DR,SAN MARCOS,TX,Texas,78666,-97.9703,29.8461
BUGG LN,SAN MARCOS,TX,Texas,78666,-97.9208,29.8805
E HOPKINS ST,SAN MARCOS,TX,Texas,78666,-97.9234,29.8835
SAN FELIPE DR,KYLE,TX,Texas,78640,-97.8828,29.999
E HIGHWAY 290,DRIPPING SPRINGS,TX,Texas,78620,-98.0841,30.1913
N MAIN ST,BUDA,TX,Texas,78610,-97.8343,30.0867
MAIN ST,BUDA,TX,Texas,78610,-97.8228,30.0883
BRODIE LN,AUSTIN,TX,Texas,78745,-97.8395,30.2004
W WILLIAM CANNON DR,AUSTIN,TX,Texas,78745,-97.7846,30.1961
W WILLIAM CANNON DR,AUSTIN,TX,Texas,78745,-97.8051,30.2019
US HIGHWAY 281,MARBLE FALLS,TX,Texas,78654,-98.2752,30.5514
BUCHANAN DR,BURNET,TX,Texas,78611,-98.2373,30.7578
RANCH ROAD 620 S,AUSTIN,TX,Texas,78738,-97.9519,30.3193
LOHMANS SPUR,LAKEWAY,TX,Texas,78734,-97.9711,30.3381
RANCH ROAD 2222,AUSTIN,TX,Texas,78730,-97.8439,30.3935
CYPRESS CREEK RD,CEDAR PARK,TX,Texas,78613,-97.8345,30.4811
HIGHWAY 183,LEANDER,TX,Texas,78641,-97.8673,30.6361
KNICKERBOCKER RD,SAN ANGELO,TX,Texas,76904,-100.4709,31.42
SHERWOOD WAY,SAN ANGELO,TX,Texas,76901,-100.4771,31.4464
PULLIAM ST,SAN ANGELO,TX,Texas,76905,-100.4111,31.4703
N CHADBOURNE ST,SAN ANGELO,TX,Texas,76903,-100.4455,31.4752
N BROADWAY ST,BALLINGER,TX,Texas,76821,-99.9481,31.7408
HICKORY ST,COLORADO CITY,TX,Texas,79512,-100.8607,32.4099
E BROADWAY ST,SWEETWATER,TX,Texas,79556,-100.4005,32.4735
COLLEGE AVE,SNYDER,TX,Texas,79549,-100.9196,32.7021
S CLACK ST,ABILENE,TX,Texas,79606,-99.7593,32.4015
N 1ST ST,ABILENE,TX,Texas,79603,-99.7674,32.452
S 14TH ST,ABILENE,TX,Texas,79605,-99.7557,32.4325
E AMBLER AVE,ABILENE,TX,Texas,79601,-99.7157,32.4751
N SWENSON ST,STAMFORD,TX,Texas,79553,-99.8029,32.9526
S BRIDGE ST,BRADY,TX,Texas,76825,-99.3355,31.1261
N NECHES ST,COLEMAN,TX,Texas,76834,-99.4272,31.8457
AUSTIN AVE,BROWNWOOD,TX,Texas,76801,-98.9784,31.7107
W COMMERCE ST,BROWNWOOD,TX,Texas,76801,-98.984,31.7292
S KEY AVE,LAMPASAS,TX,Texas,76550,-98.1783,31.0544
E BUSINESS 190,COPPERAS COVE,TX,Texas,76522,-97.9049,31.1153
E MAIN ST,EASTLAND,TX,Texas,76448,-98.7933,32.4016
W WASHINGTON ST,STEPHENVILLE,TX,Texas,76401,-98.2286,32.2079
S MORGAN ST,GRANBURY,TX,Texas,76048,-97.7947,32.4323
STATE HIGHWAY 16 S,GRAHAM,TX,Texas,76450,-98.5843,33.0856
SE 10TH AVE,MINERAL WELLS,TX,Texas,76067,-98.1046,32.8088
E INTERSTATE 20,WEATHERFORD,TX,Texas,76087,-97.7871,32.7298
FORT WORTH HWY,WEATHERFORD,TX,Texas,76086,-97.787,32.7586
N NAVARRO ST,VICTORIA,TX,Texas,77901,-97.0004,28.8267
NE ZAC LENTZ PKWY,VICTORIA,TX,Texas,77904,-96.9834,28.8636
SAM HOUSTON DR,VICTORIA,TX,Texas,77901,-96.9786,28.8258
N ESPLANADE ST,CUERO,TX,Texas,77954,-97.2872,29.0998
E PIERCE ST,LULING,TX,Texas,78648,-97.6473,29.6803
US HIGHWAY 90A E,GONZALES,TX,Texas,78629,-97.4599,29.5158
W GRAND AVE,YOAKUM,TX,Texas,77995,-97.1606,29.294
N TEXANA ST,HALLETTSVILLE,TX,Texas,77964,-96.9387,29.4639
STATE HIGHWAY 35 N,PORT LAVACA,TX,Texas,77979,-96.6341,28.6296
W MAIN ST,EDNA,TX,Texas,77957,-96.6553,28.9739
SHULT DR,COLUMBUS,TX,Texas,78934,-96.5426,29.6943
N MECHANIC ST,EL CAMPO,TX,Texas,77437,-96.2864,29.2181
N RICHMOND RD,WHARTON,TX,Texas,77488,-96.0943,29.3317
S COLORADO ST,LOCKHART,TX,Texas,78644,-97.669,29.8799
S INTERSTATE 35,AUSTIN,TX,Texas,78745,-97.7643,30.2004
S LAMAR BLVD,AUSTIN,TX,Texas,78704,-97.7818,30.2436
MANCHACA RD,AUSTIN,TX,Texas,78704,-97.7817,30.2425
GUADALUPE ST,AUSTIN,TX,Texas,78701,-97.7415,30.2813
E RIVERSIDE DR,AUSTIN,TX,Texas,78741,-97.7274,30.2405
AIRPORT BLVD,AUSTIN,TX,Texas,78702,-97.6983,30.2719
HIGHWAY 71 W,BASTROP,TX,Texas,78602,-97.3267,30.1054
GREYSTONE DR,AUSTIN,TX,Texas,78731,-97.7484,30.3574
N INTERSTATE 35,AUSTIN,TX,Texas,78723,-97.7065,30.3163
CAMERON RD,AUSTIN,TX,Texas,78723,-97.6962,30.3203
CAMERON RD,AUSTIN,TX,Texas,78723,-97.6949,30.3201
E HIGHWAY 290,AUSTIN,TX,Texas,78723,-97.6987,30.3223
N LAMAR BLVD,AUSTIN,TX,Texas,78753,-97.7058,30.3537
BURNET RD,AUSTIN,TX,Texas,78727,-97.698,30.438
E BRAKER LN,AUSTIN,TX,Texas,78753,-97.6718,30.3747
E BRAKER LN,AUSTIN,TX,Texas,78753,-97.6713,30.3745
FM 620 CAT HOLW,AUSTIN,TX,Texas,78717,-97.7682,30.4935
R R 620,ROUND ROCK,TX,Texas,78681,-97.7247,30.4951
N MAYS ST,ROUND ROCK,TX,Texas,78664,-97.6889,30.5278
S A W GRIMES BLVD,ROUND ROCK,TX,Texas,78664,-97.6575,30.4977
N MAIN ST,TAYLOR,TX,Texas,76574,-97.4121,30.5875
EXCHANGE BLVD,HUTTO,TX,Texas,78634,-97.5558,30.5426
N AUSTIN AVE,GEORGETOWN,TX,Texas,78626,-97.6771,30.6495
N AUSTIN AVE,GEORGETOWN,TX,Texas,78626,-97.6764,30.6498
W CAMERON AVE,ROCKDALE,TX,Texas,76567,-97.016,30.6493
W 4TH ST,CAMERON,TX,Texas,76520,-96.9801,30.8545
W STATE HIGHWAY 71,LA GRANGE,TX,Texas,78945,-96.9092,29.9045
E AUSTIN ST,GIDDINGS,TX,Texas,78942,-96.9273,30.1811
W MAIN ST,BELLVILLE,TX,Texas,77418,-96.2618,29.9521
GEBHARDT RD,SEALY,TX,Texas,77474,-96.1536,29.7624
S DAY ST,BRENHAM,TX,Texas,77833,-96.3962,30.1436
STATE HIGHWAY 36 S,CALDWELL,TX,Texas,77836,-96.6919,30.536
W HIGHWAY 21,CALDWELL,TX,Texas,77836,-96.7017,30.5314
STATE HIGHWAY 6 S,COLLEGE STATION,TX,Texas,77845,-96.2877,30.5873
S LA SALLE ST,NAVASOTA,TX,Texas,77868,-96.0856,30.3853
WELLBORN RD,BRYAN,TX,Texas,77801,-96.3542,30.6223
UNIVERSITY DR E,COLLEGE STATION,TX,Texas,77840,-96.334,30.6281
WILDFLOWER DR,BRYAN,TX,Texas,77802,-96.3226,30.6663
7TH ST,BAY CITY,TX,Texas,77414,-95.9386,28.9845
W BRAZOS AVE,WEST COLUMBIA,TX,Texas,77486,-95.6553,29.1464
CIRCLE WAY ST,LAKE JACKSON,TX,Texas,77566,-95.4517,29.0423
1ST ST,ROSENBERG,TX,Texas,77471,-95.8082,29.5333
AVENUE H,ROSENBERG,TX,Texas,77471,-95.7761,29.5711
BRAZOS TOWN XING,ROSENBERG,TX,Texas,77471,-95.7497,29.5437
,RICHMOND,TX,Texas,77469,-95.7112,29.5387
SOUTHWEST FWY,SUGAR LAND,TX,Texas,77479,-95.685,29.5634
FM 1093 RD,RICHMOND,TX,Texas,77406,-95.8357,29.6955
WESTHEIMER PKWY,KATY,TX,Texas,77450,-95.7527,29.7339
FM 359 RD,RICHMOND,TX,Texas,77406,-95.7444,29.6247
W AIRPORT BLVD,SUGAR LAND,TX,Texas,77498,-95.6755,29.6489
HIGHWAY 6 S,HOUSTON,TX,Texas,77082,-95.644,29.7255
N VELASCO ST,ANGLETON,TX,Texas,77515,-95.4333,29.1775
E HIGHWAY 6,ALVIN,TX,Texas,77511,-95.2295,29.4246
HIGHWAY 6,SUGAR LAND,TX,Texas,77478,-95.5981,29.5895
HIGHWAY 6,MISSOURI CITY,TX,Texas,77459,-95.5556,29.554
HIGHWAY 6,FRESNO,TX,Texas,77545,-95.4813,29.5189
TEXAS PKWY,MISSOURI CITY,TX,Texas,77489,-95.5272,29.5947
ELDRIDGE RD,SUGAR LAND,TX,Texas,77478,-95.6183,29.635
W AIRPORT BLVD,MEADOWS PLACE,TX,Texas,77477,-95.5808,29.647
BISSONNET ST,HOUSTON,TX,Texas,77099,-95.6044,29.6781
BELLAIRE BLVD,HOUSTON,TX,Texas,77072,-95.5905,29.7042
WESTHEIMER RD,HOUSTON,TX,Texas,77077,-95.5942,29.7364
BEECHNUT ST,HOUSTON,TX,Texas,77072,-95.57,29.6885
WESTHEIMER RD,HOUSTON,TX,Texas,77042,-95.5629,29.7364
BELLAIRE BLVD,HOUSTON,TX,Texas,77036,-95.5406,29.7057
W BELLFORT ST,HOUSTON,TX,Texas,77071,-95.5248,29.6561
W FUQUA ST,HOUSTON,TX,Texas,77045,-95.4432,29.6133
CHIMNEY ROCK RD,HOUSTON,TX,Texas,77096,-95.4763,29.6612
BISSONNET ST,HOUSTON,TX,Texas,77074,-95.5071,29.6877
RICHMOND AVE,HOUSTON,TX,Texas,77063,-95.5301,29.7289
CHIMNEY ROCK RD,HOUSTON,TX,Texas,77081,-95.4769,29.7244
RICHMOND AVE,HOUSTON,TX,Texas,77027,-95.4564,29.7328
BELLAIRE BLVD,HOUSTON,TX,Texas,77025,-95.4406,29.7056
HIGHWAY 6,MANVEL,TX,Texas,77578,-95.3558,29.4669
HIGHWAY 6,MANVEL,TX,Texas,77578,-95.3547,29.4664
BROADWAY ST,PEARLAND,TX,Texas,77584,-95.3836,29.556
SHADOW CREEK PKWY,PEARLAND,TX,Texas,77584,-95.3958,29.5801
BROADWAY ST,PEARLAND,TX,Texas,77581,-95.3158,29.5588
BROADWAY ST,PEARLAND,TX,Texas,77581,-95.2599,29.5544
CULLEN BLVD,HOUSTON,TX,Texas,77051,-95.3544,29.6544
S LOOP W,HOUSTON,TX,Texas,77054,-95.4272,29.6771
KIRBY DR,HOUSTON,TX,Texas,77054,-95.4123,29.6917
W HOLCOMBE BLVD,HOUSTON,TX,Texas,77030,-95.4053,29.7065
CALHOUN RD,HOUSTON,TX,Texas,77004,-95.3392,29.7184
CLEARWOOD DR,HOUSTON,TX,Texas,77075,-95.244,29.6402
GULF FWY,HOUSTON,TX,Texas,77087,-95.296,29.7035
BELLFORT ST,HOUSTON,TX,Texas,77061,-95.276,29.6728
S WAYSIDE DR,HOUSTON,TX,Texas,77023,-95.3089,29.7316
GULF FWY,HOUSTON,TX,Texas,77087,-95.3006,29.7049
RICHEY ST,PASADENA,TX,Texas,77502,-95.2253,29.6831
HIGHWAY 6,SANTA FE,TX,Texas,77510,-95.0909,29.3743
GULF FWY,DICKINSON,TX,Texas,77539,-95.0792,29.4498
FM 1764 RD,LA MARQUE,TX,Texas,77568,-95.0375,29.3999
SEAWALL BLVD,GALVESTON,TX,Texas,77551,-94.8157,29.2733
61ST ST,GALVESTON,TX,Texas,77551,-94.8297,29.2719
PALMER HWY,TEXAS CITY,TX,Texas,77590,-94.9279,29.3939
W PARKWOOD AVE,FRIENDSWOOD,TX,Texas,77546,-95.1888,29.509
W MAIN ST,LEAGUE CITY,TX,Texas,77573,-95.1291,29.5001
SCARSDALE BLVD,HOUSTON,TX,Texas,77089,-95.2124,29.5856
BAY AREA BLVD,HOUSTON,TX,Texas,77058,-95.1092,29.5725
CLEAR LAKE CITY BLVD,HOUSTON,TX,Texas,77062,-95.1401,29.5926
N EGRET BAY BLVD,LEAGUE CITY,TX,Texas,77573,-95.0852,29.5248
BAYPORT BLVD,SEABROOK,TX,Texas,77586,-95.0259,29.5712
SHAVER ST,PASADENA,TX,Texas,77502,-95.2078,29.6653
FAIRMONT PKWY,PASADENA,TX,Texas,77504,-95.1836,29.6503
SPENCER HWY,PASADENA,TX,Texas,77505,-95.1338,29.6635
RED BLUFF RD,PASADENA,TX,Texas,77503,-95.1694,29.6928
PASADENA BLVD,PASADENA,TX,Texas,77506,-95.2017,29.7111
CENTER ST,DEER PARK,TX,Texas,77536,-95.1228,29.6806
W FAIRMONT PKWY,LA PORTE,TX,Texas,77571,-95.0322,29.6518
FRONT ST,BROOKSHIRE,TX,Texas,77423,-95.9478,29.7863
KATY MILLS BLVD,KATY,TX,Texas,77494,-95.8061,29.7834
S MASON RD,KATY,TX,Texas,77450,-95.7508,29.7716
FRY RD,HOUSTON,TX,Texas,77084,-95.719,29.7943
KATY FWY,HOUSTON,TX,Texas,77094,-95.7165,29.7826
N FRY RD,KATY,TX,Texas,77449,-95.7183,29.8495
BARKER CYPRESS RD,HOUSTON,TX,Texas,77084,-95.6829,29.8619
RIVER SAGE DR,HOUSTON,TX,Texas,77084,-95.6811,29.8535
RIPPLING WATER DR,HOUSTON,TX,Texas,77084,-95.6454,29.8471
BARKER CYPRESS RD,CYPRESS,TX,Texas,77433,-95.6831,29.8958
MASON RD,CYPRESS,TX,Texas,77433,-95.7375,29.9949
SPRING CYPRESS RD,CYPRESS,TX,Texas,77429,-95.6898,29.9722
FM 2920 RD,WALLER,TX,Texas,77484,-95.9143,30.0564
HIGHWAY 290 E,HEMPSTEAD,TX,Texas,77445,-96.0608,30.0937
NICHOLS SAWMILL RD,HOCKLEY,TX,Texas,77447,-95.7801,30.1149
FM 1488 RD,MAGNOLIA,TX,Texas,77354,-95.7444,30.2172
DAIRY ASHFORD RD,HOUSTON,TX,Texas,77079,-95.6064,29.7726
GESSNER RD,HOUSTON,TX,Texas,77024,-95.5418,29.783
GESSNER RD,HOUSTON,TX,Texas,77080,-95.5451,29.8083
SAN FELIPE ST,HOUSTON,TX,Texas,77057,-95.4981,29.7496
LONG POINT RD,HOUSTON,TX,Texas,77055,-95.4833,29.8029
W 18TH ST,HOUSTON,TX,Texas,77008,-95.4318,29.8021
ANTOINE DR,HOUSTON,TX,Texas,77091,-95.4731,29.842
W 43RD ST,HOUSTON,TX,Texas,77018,-95.431,29.8282
HIGHWAY 6 N,HOUSTON,TX,Texas,77095,-95.633,29.9041
NORTHWEST FWY,JERSEY VILLAGE,TX,Texas,77040,-95.5843,29.8908
GESSNER RD,HOUSTON,TX,Texas,77040,-95.5407,29.8852
N ELDRIDGE PKWY,CYPRESS,TX,Texas,77429,-95.6108,29.9833
JONES RD,HOUSTON,TX,Texas,77070,-95.5849,29.9567
STATE HIGHWAY 249,HOUSTON,TX,Texas,77064,-95.5431,29.9577
ANTOINE DR,HOUSTON,TX,Texas,77088,-95.4739,29.8855
VETERANS MEMORIAL DR,HOUSTON,TX,Texas,77067,-95.4619,29.94
VETERANS MEMORIAL DR,HOUSTON,TX,Texas,77014,-95.4905,29.978
ELLA BLVD,HOUSTON,TX,Texas,77090,-95.4334,29.9848
WESTHEIMER RD,HOUSTON,TX,Texas,77006,-95.3946,29.7437
SHEARN ST,HOUSTON,TX,Texas,77007,-95.3834,29.7744
KATY FWY,HOUSTON,TX,Texas,77007,-95.397,29.7774
ST EMANUEL ST,HOUSTON,TX,Texas,77003,-95.355,29.7519
,HOUSTON,TX,Texas,77001,-95.3662,29.7654
NORTH FWY,HOUSTON,TX,Texas,77022,-95.3805,29.8317
W LITTLE YORK RD,HOUSTON,TX,Texas,77076,-95.4051,29.8689
LITTLE YORK RD,HOUSTON,TX,Texas,77093,-95.3279,29.8697
FEDERAL RD,HOUSTON,TX,Texas,77015,-95.215,29.7732
TIDWELL RD,HOUSTON,TX,Texas,77028,-95.2642,29.8504
NORTH FWY,HOUSTON,TX,Texas,77037,-95.4113,29.9287
FM 1960 RD W,HUMBLE,TX,Texas,77338,-95.3761,30.0196
ALDINE BENDER RD,HOUSTON,TX,Texas,77032,-95.304,29.9311
WILSON RD,HUMBLE,TX,Texas,77396,-95.2475,29.9364
1ST ST W,HUMBLE,TX,Texas,77338,-95.2682,30.0009
W MAIN ST,TOMBALL,TX,Texas,77375,-95.6284,30.0907
SPRING CYPRESS RD,SPRING,TX,Texas,77379,-95.5534,30.032
KUYKENDAHL RD,TOMBALL,TX,Texas,77375,-95.5531,30.1235
KUYKENDAHL RD,SPRING,TX,Texas,77379,-95.4877,30.0387
INTERSTATE 45,SPRING,TX,Texas,77388,-95.4335,30.0587
INTERSTATE 45,SPRING,TX,Texas,77373,-95.4304,30.0486
GLEN LOCH DR,SPRING,TX,Texas,77381,-95.4944,30.1523
ROBINSON RD,CONROE,TX,Texas,77385,-95.4411,30.1571
INTERSTATE 45,SPRING,TX,Texas,77380,-95.4454,30.135
WOODLANDS PKWY,THE WOODLANDS,TX,Texas,77382,-95.5371,30.1811
FM 2978 RD,MAGNOLIA,TX,Texas,77354,-95.5681,30.2168
COLLEGE PARK DR,CONROE,TX,Texas,77384,-95.4644,30.207
S LOOP 336 W,CONROE,TX,Texas,77304,-95.4589,30.2798
RAYFORD RD,SPRING,TX,Texas,77386,-95.3994,30.1216
KINGWOOD DR,KINGWOOD,TX,Texas,77339,-95.2307,30.0496
KINGWOOD DR,KINGWOOD,TX,Texas,77339,-95.2431,30.0503
FM 1314 RD,PORTER,TX,Texas,77365,-95.2464,30.1042
FM 1485 RD,NEW CANEY,TX,Texas,77357,-95.2309,30.1623
HIGHWAY 90 S,NAVASOTA,TX,Texas,77868,-96.0695,30.3969
HIGHWAY 105 W,MONTGOMERY,TX,Texas,77356,-95.6589,30.3853
HIGHWAY 105 W,CONROE,TX,Texas,77304,-95.5816,30.3534
HIGHWAY 105 W,MONTGOMERY,TX,Texas,77356,-95.5937,30.3577
N LOOP 336 W,CONROE,TX,Texas,77301,-95.4757,30.3342
CANYON FALLS BLVD,WILLIS,TX,Texas,77318,-95.4985,30.4202
HIGHWAY 105 E,CONROE,TX,Texas,77306,-95.3134,30.3321
HIGHWAY 30 W,HUNTSVILLE,TX,Texas,77340,-95.5728,30.7188
SAM HOUSTON AVE,HUNTSVILLE,TX,Texas,77340,-95.5372,30.6999
WALLISVILLE RD,HOUSTON,TX,Texas,77049,-95.1671,29.8078
UVALDE RD,HOUSTON,TX,Texas,77015,-95.1815,29.8045
SHELDON RD,CHANNELVIEW,TX,Texas,77530,-95.1247,29.7798
TIDWELL RD,HOUSTON,TX,Texas,77044,-95.191,29.8531
W LAKE HOUSTON PKWY,HOUSTON,TX,Texas,77044,-95.1883,29.9241
FM 1960 RD E,HUMBLE,TX,Texas,77346,-95.1771,29.9985
FM 2100 RD,CROSBY,TX,Texas,77532,-95.0629,29.889
KENNINGS RD,CROSBY,TX,Texas,77532,-95.0631,29.8887
GARTH RD,BAYTOWN,TX,Texas,77520,-94.9807,29.7416
W BAKER RD,BAYTOWN,TX,Texas,77521,-94.9679,29.7693
GARTH RD,BAYTOWN,TX,Texas,77521,-94.9806,29.7999
N HIGHWAY 146,BAYTOWN,TX,Texas,77523,-94.9003,29.8175
EAGLE DR,BAYTOWN,TX,Texas,77523,-94.857,29.8452
NORTHPARK DR,KINGWOOD,TX,Texas,77339,-95.1954,30.068
MAIN ST,LIBERTY,TX,Texas,77575,-94.7955,30.0657
STERLING ST,DAYTON,TX,Texas,77535,-94.8885,30.0457
STATE HIGHWAY 124,WINNIE,TX,Texas,77665,-94.3848,29.8123
N MAIN ST,LIBERTY,TX,Texas,77575,-94.7824,30.0737
S WASHINGTON AVE,CLEVELAND,TX,Texas,77327,-95.0929,30.338
N WASHINGTON AVE,LIVINGSTON,TX,Texas,77351,-94.9334,30.7179
S MAGNOLIA ST,WOODVILLE,TX,Texas,75979,-94.4164,30.7634
TRIMMIER RD,KILLEEN,TX,Texas,76542,-97.7407,31.0724
S FORT HOOD ST,KILLEEN,TX,Texas,76542,-97.7493,31.1064
67TH ST,FORT HOOD,TX,Texas,76544,-97.7811,31.1427
E RANCIER AVE,KILLEEN,TX,Texas,76543,-97.7043,31.12
PAN AMERICAN DR,HARKER HEIGHTS,TX,Texas,76548,-97.6554,31.0774
N ROY REYNOLDS DR,KILLEEN,TX,Texas,76543,-97.6698,31.1023
NEIL ST,BELTON,TX,Texas,76513,-97.4503,31.056
W ADAMS AVE,TEMPLE,TX,Texas,76502,-97.4168,31.1178
N GENERAL BRUCE DR,TEMPLE,TX,Texas,76504,-97.3571,31.1071
S STATE HIGHWAY 36,GATESVILLE,TX,Texas,76528,-97.7266,31.4309
N HEWITT DR,HEWITT,TX,Texas,76643,-97.1978,31.4659
N VALLEY MILLS DR,WACO,TX,Texas,76710,-97.1767,31.5288
CHINA SPRING RD,WACO,TX,Texas,76708,-97.2403,31.6297
S 8TH ST,WACO,TX,Texas,76706,-97.1248,31.546
N LOOP 340,WACO,TX,Texas,76705,-97.0997,31.6025
CRAIK ST,MARLIN,TX,Texas,76661,-96.8994,31.3084
S MARKET ST,HEARNE,TX,Texas,77859,-96.591,30.8753
W US HIGHWAY 79,BUFFALO,TX,Texas,75831,-96.0951,31.4266
W US HIGHWAY 79,FRANKLIN,TX,Texas,77856,-96.4905,31.0224
S DR J B RIGGS DR,GROESBECK,TX,Texas,76642,-96.5354,31.5208
W US HIGHWAY 84,FAIRFIELD,TX,Texas,75840,-96.1782,31.712
W MILAM ST,MEXIA,TX,Texas,76667,-96.495,31.683
E LOOP 255,TEAGUE,TX,Texas,75860,-96.2745,31.6276
W COMMERCE ST,BUFFALO,TX,Texas,75831,-96.0742,31.4533
SW BIG BEND TRL,GLEN ROSE,TX,Texas,76043,-97.766,32.2337
W HENDERSON ST,CLEBURNE,TX,Texas,76033,-97.3923,32.3468
I 35 HWY NW,HILLSBORO,TX,Texas,76645,-97.0968,32.018
SW WILSHIRE BLVD,BURLESON,TX,Texas,76028,-97.3454,32.5245
W HIGHWAY 67,ALVARADO,TX,Texas,76009,-97.2227,32.4163
E MAIN ST,MIDLOTHIAN,TX,Texas,76065,-96.984,32.4775
HIGHWAY 377 S,BENBROOK,TX,Texas,76126,-97.4694,32.6734
MERCEDES ST,BENBROOK,TX,Texas,76126,-97.467,32.6792
OVERTON RIDGE BLVD,FORT WORTH,TX,Texas,76132,-97.4105,32.676
MCCART AVE,FORT WORTH,TX,Texas,76133,-97.3669,32.6501
CAMP BOWIE WEST BLVD,FORT WORTH,TX,Texas,76116,-97.4761,32.7246
WHITE SETTLEMENT RD,WHITE SETTLEMENT,TX,Texas,76108,-97.4853,32.7613
N COLLINS & WASHINGTON,FORT WORTH,TX,Texas,76116,-97.461,32.7223
CAMP BOWIE BLVD,FORT WORTH,TX,Texas,76107,-97.3889,32.7399
LAKE WORTH BLVD,FORT WORTH,TX,Texas,76135,-97.4288,32.8112
LAKE WORTH BLVD,FORT WORTH,TX,Texas,76135,-97.4156,32.8061
NW 19TH ST,FORT WORTH,TX,Texas,76164,-97.3665,32.7785
E HIGHWAY 199,SPRINGTOWN,TX,Texas,76082,-97.6783,32.962
CENTRAL DR,AZLE,TX,Texas,76020,-97.5454,32.8984
S SAGINAW BLVD,SAGINAW,TX,Texas,76179,-97.3611,32.8523
AVONDALE HASLET RD,HASLET,TX,Texas,76052,-97.4168,32.9679
FM 1187 E,CROWLEY,TX,Texas,76036,-97.3517,32.5658
W RENDON CROWLEY RD,CROWLEY,TX,Texas,76036,-97.3261,32.578
SYCAMORE SCHOOL RD,FORT WORTH,TX,Texas,76134,-97.3391,32.6356
SE LOOP 820,FORT WORTH,TX,Texas,76140,-97.2793,32.6608
RENDON RD,BURLESON,TX,Texas,76028,-97.241,32.5794
HIGHWAY 157 N,MANSFIELD,TX,Texas,76063,-97.151,32.5814
SW GREEN OAKS BLVD,ARLINGTON,TX,Texas,76017,-97.1655,32.6586
W BERRY ST,FORT WORTH,TX,Texas,76110,-97.3526,32.7063
E BERRY ST,FORT WORTH,TX,Texas,76105,-97.2867,32.7133
E LANCASTER AVE,FORT WORTH,TX,Texas,76103,-97.2605,32.7413
N MAIN ST,FORT WORTH,TX,Texas,76106,-97.3489,32.796
E BELKNAP ST,HALTOM CITY,TX,Texas,76111,-97.2861,32.7848
DENTON HWY,HALTOM CITY,TX,Texas,76117,-97.2646,32.8037
MEADOWBROOK DR,FORT WORTH,TX,Texas,76112,-97.2209,32.746
W GREEN OAKS BLVD,ARLINGTON,TX,Texas,76016,-97.191,32.7074
EASTCHASE PKWY,FORT WORTH,TX,Texas,76120,-97.1709,32.7523
MATLOCK RD,MANSFIELD,TX,Texas,76063,-97.1159,32.6043
E BROAD ST,MANSFIELD,TX,Texas,76063,-97.0734,32.5797
S COOPER ST,ARLINGTON,TX,Texas,76017,-97.1337,32.6493
W CAMP WISDOM RD,GRAND PRAIRIE,TX,Texas,75052,-97.0588,32.6489
E FM 1382,CEDAR HILL,TX,Texas,75104,-96.9353,32.592
S CARRIER PKWY,GRAND PRAIRIE,TX,Texas,75052,-97.0116,32.6849
W ARKANSAS LN,ARLINGTON,TX,Texas,76013,-97.1195,32.7056
E PARK ROW DR,ARLINGTON,TX,Texas,76010,-97.0988,32.7211
S WATSON RD,ARLINGTON,TX,Texas,76014,-97.0639,32.6909
S WATSON RD,ARLINGTON,TX,Texas,76010,-97.0614,32.7341
N COLLINS ST,ARLINGTON,TX,Texas,76011,-97.0976,32.7712
TRINITY BLVD,FORT WORTH,TX,Texas,76155,-97.0599,32.8225
N STATE HIGHWAY 161,GRAND PRAIRIE,TX,Texas,75050,-97.0281,32.7563
N BELT LINE RD,IRVING,TX,Texas,75061,-96.9939,32.8222
W SHADY GROVE RD,IRVING,TX,Texas,75060,-96.9766,32.8007
BLUE MOUND RD,FORT WORTH,TX,Texas,76131,-97.3418,32.8723
DENTON HWY,WATAUGA,TX,Texas,76148,-97.2629,32.8655
N BEACH ST,FORT WORTH,TX,Texas,76244,-97.2892,32.9296
N BEACH ST,FORT WORTH,TX,Texas,76244,-97.2812,32.9554
RUFE SNOW DR,FORT WORTH,TX,Texas,76148,-97.2383,32.8742
BROWN TRL,BEDFORD,TX,Texas,76022,-97.1608,32.8382
HARWOOD RD,BEDFORD,TX,Texas,76021,-97.1672,32.8514
COLLEYVILLE BLVD,COLLEYVILLE,TX,Texas,76034,-97.1493,32.8909
KELLER PKWY,KELLER,TX,Texas,76248,-97.2278,32.9342
W SOUTHLAKE BLVD,SOUTHLAKE,TX,Texas,76092,-97.1515,32.9419
S FM 156,JUSTIN,TX,Texas,76247,-97.2951,33.091
E HIGHWAY 114,ROANOKE,TX,Texas,76262,-97.2205,33.0119
HARWOOD RD,BEDFORD,TX,Texas,76021,-97.115,32.8523
W NORTHWEST HWY,GRAPEVINE,TX,Texas,76051,-97.08,32.9407
W AIRPORT FWY,IRVING,TX,Texas,75062,-96.9564,32.8367
W AIRPORT FWY,IRVING,TX,Texas,75062,-96.9597,32.8374
N MACARTHUR BLVD,IRVING,TX,Texas,75038,-96.9643,32.8845
N O CONNOR RD,IRVING,TX,Texas,75062,-96.949,32.8659
S MACARTHUR BLVD,COPPELL,TX,Texas,75019,-96.957,32.9512
FLOWER MOUND RD,FLOWER MOUND,TX,Texas,75028,-97.0462,33.0109
FLOWER MOUND RD,FLOWER MOUND,TX,Texas,75022,-97.0727,33.0145
JUSTIN RD,ARGYLE,TX,Texas,76226,-97.1104,33.0726
CROSS TIMBERS RD,FLOWER MOUND,TX,Texas,75028,-97.0709,33.036
N DENTON TAP RD,COPPELL,TX,Texas,75019,-96.994,32.9847
S STATE HIGHWAY 121,LEWISVILLE,TX,Texas,75067,-96.9929,33.0103
W MAIN ST,LEWISVILLE,TX,Texas,75067,-97.0324,33.0427
JUSTIN RD,LEWISVILLE,TX,Texas,75077,-97.0319,33.0715
W HIGHWAY 287 BYP,WAXAHACHIE,TX,Texas,75165,-96.8427,32.4214
E OVILLA RD,RED OAK,TX,Texas,75154,-96.8162,32.5322
W ENNIS AVE,ENNIS,TX,Texas,75119,-96.6347,32.3237
S INTERSTATE HIGHWAY 45,FERRIS,TX,Texas,75125,-96.6586,32.533
W 7TH AVE,CORSICANA,TX,Texas,75110,-96.4869,32.0802
W 7TH AVE,CORSICANA,TX,Texas,75110,-96.4698,32.0886
W MAIN ST,GUN BARREL CITY,TX,Texas,75156,-96.1214,32.3305
N HAMPTON RD,DESOTO,TX,Texas,75115,-96.8572,32.5928
S CEDAR RIDGE DR,DUNCANVILLE,TX,Texas,75116,-96.9252,32.6502
W CAMP WISDOM RD,DALLAS,TX,Texas,75237,-96.8752,32.6631
W PLEASANT RUN RD,LANCASTER,TX,Texas,75146,-96.7858,32.6033
E LEDBETTER DR,DALLAS,TX,Texas,75216,-96.7891,32.6863
BONNIE VIEW RD,DALLAS,TX,Texas,75241,-96.7526,32.653
W ILLINOIS AVE,DALLAS,TX,Texas,75224,-96.8551,32.7202
FORT WORTH AVE,DALLAS,TX,Texas,75211,-96.8737,32.7542
SINGLETON BLVD,DALLAS,TX,Texas,75212,-96.8605,32.7788
CEDAR SPRINGS RD,DALLAS,TX,Texas,75201,-96.8053,32.7917
OAK LAWN AVE,DALLAS,TX,Texas,75219,-96.8061,32.812
ROSS AVE,DALLAS,TX,Texas,75204,-96.7789,32.8035
SKILLMAN ST,DALLAS,TX,Texas,75206,-96.7617,32.8132
HALL RD,SEAGOVILLE,TX,Texas,75159,-96.548,32.6488
S BUCKNER BLVD,DALLAS,TX,Texas,75227,-96.6841,32.7507
ELAM RD,BALCH SPRINGS,TX,Texas,75180,-96.6201,32.719
E R L THORNTON FWY,DALLAS,TX,Texas,75228,-96.6862,32.7964
GROSS RD,MESQUITE,TX,Texas,75149,-96.6207,32.7776
GUS THOMASSON RD,MESQUITE,TX,Texas,75150,-96.6465,32.8243
N GALLOWAY AVE,MESQUITE,TX,Texas,75150,-96.6118,32.8056
S BELT LINE RD,DALLAS,TX,Texas,75253,-96.5857,32.7028
E CARTWRIGHT RD,MESQUITE,TX,Texas,75149,-96.5862,32.7453
WEBB CHAPEL RD,DALLAS,TX,Texas,75220,-96.8649,32.8675
FOREST LN,DALLAS,TX,Texas,75234,-96.8586,32.9095
LYNDON B JOHNSON FWY,DALLAS,TX,Texas,75244,-96.8405,32.9258
MARSH LN,ADDISON,TX,Texas,75001,-96.8557,32.9371
DALLAS PKWY,DALLAS,TX,Texas,75254,-96.8241,32.9494
HILLCREST AVE,DALLAS,TX,Texas,75205,-96.7873,32.8442
PRESTON HOLLOW LN,DALLAS,TX,Texas,75225,-96.8056,32.8714
PARK LN,DALLAS,TX,Texas,75231,-96.7634,32.8706
ABRAMS RD,DALLAS,TX,Texas,75231,-96.7409,32.8926
FOREST LN,DALLAS,TX,Texas,75230,-96.8023,32.9096
BELT LINE RD,DALLAS,TX,Texas,75248,-96.7695,32.951
W ARAPAHO RD,RICHARDSON,TX,Texas,75080,-96.7366,32.9615
E FRANKFORD RD,CARROLLTON,TX,Texas,75007,-96.9096,32.9986
N JOSEY LN,CARROLLTON,TX,Texas,75007,-96.8876,32.9986
KELLY BLVD,CARROLLTON,TX,Texas,75006,-96.8774,32.9716
E HEBRON PKWY,CARROLLTON,TX,Texas,75010,-96.9151,33.0214
MIDWAY RD,CARROLLTON,TX,Texas,75006,-96.8421,32.9832
S COLONY BLVD,THE COLONY,TX,Texas,75056,-96.8917,33.0803
WINDHAVEN PKWY,PLANO,TX,Texas,75093,-96.833,33.0555
PRESTON RD,DALLAS,TX,Texas,75252,-96.8008,32.9913
W PARK BLVD,PLANO,TX,Texas,75093,-96.7909,33.0278
W CAMPBELL RD,RICHARDSON,TX,Texas,75080,-96.7372,32.9762
OHIO DR,PLANO,TX,Texas,75024,-96.7974,33.0953
W PARKER RD,PLANO,TX,Texas,75023,-96.7355,33.0414
S CUSTER RD,ALLEN,TX,Texas,75013,-96.7329,33.0992
LEGACY DR,PLANO,TX,Texas,75023,-96.7514,33.0706
GUS THOMASSON RD,DALLAS,TX,Texas,75228,-96.6751,32.8358
E NORTHWEST HWY,DALLAS,TX,Texas,75238,-96.7103,32.8639
W KINGSLEY RD,GARLAND,TX,Texas,75041,-96.6615,32.8785
LYNDON B JOHNSON FWY,MESQUITE,TX,Texas,75150,-96.6306,32.8342
W WALNUT ST,GARLAND,TX,Texas,75042,-96.6873,32.9172
E BELT LINE RD,RICHARDSON,TX,Texas,75081,-96.6949,32.9449
W BUCKINGHAM RD,GARLAND,TX,Texas,75042,-96.6492,32.9314
BROADWAY BLVD,GARLAND,TX,Texas,75043,-96.5985,32.8501
LAKEVIEW PKWY,ROWLETT,TX,Texas,75088,-96.5669,32.908
N SHILOH RD,GARLAND,TX,Texas,75044,-96.6641,32.9764
SHILOH RD,PLANO,TX,Texas,75074,-96.6652,33.0153
JUPITER RD,PLANO,TX,Texas,75074,-96.6819,33.0173
W MCDERMOTT DR,ALLEN,TX,Texas,75013,-96.7064,33.1003
S GREENVILLE AVE,ALLEN,TX,Texas,75002,-96.6708,33.0867
HIGHWAY 78,SACHSE,TX,Texas,75048,-96.5907,32.9788
N HIGHWAY 78,WYLIE,TX,Texas,75098,-96.5353,33.0147
S WASHINGTON ST,KAUFMAN,TX,Texas,75142,-96.3114,32.5729
E US HIGHWAY 80,FORNEY,TX,Texas,75126,-96.4635,32.7548
E US HIGHWAY 80,FORNEY,TX,Texas,75126,-96.4447,32.7424
WILSON RD,TERRELL,TX,Texas,75161,-96.2454,32.6908
RIDGE RD,ROCKWALL,TX,Texas,75032,-96.4726,32.8897
W RUSK ST,ROCKWALL,TX,Texas,75087,-96.4676,32.93
W INTERSTATE 30,ROYSE CITY,TX,Texas,75189,-96.3335,32.9679
STATE HIGHWAY 34 S,QUINLAN,TX,Texas,75474,-96.1276,32.9096
E MAIN ST,MADISONVILLE,TX,Texas,77864,-95.8861,30.9639
E LOOP 304,CROCKETT,TX,Texas,75835,-95.4379,31.3267
S LOOP 256,PALESTINE,TX,Texas,75801,-95.6365,31.7376
S JACKSON ST,JACKSONVILLE,TX,Texas,75766,-95.2611,31.9488
S MEDFORD DR,LUFKIN,TX,Texas,75901,-94.7236,31.3097
S TIMBERLAND DR,LUFKIN,TX,Texas,75901,-94.7207,31.3338
N MAIN ST,RUSK,TX,Texas,75785,-95.1504,31.7967
SOUTH ST,NACOGDOCHES,TX,Texas,75964,-94.6688,31.5833
NORTH ST,NACOGDOCHES,TX,Texas,75965,-94.6528,31.6277
N UNIVERSITY DR,NACOGDOCHES,TX,Texas,75965,-94.6395,31.632
E TYLER ST,ATHENS,TX,Texas,75751,-95.8302,32.2103
S TRADE DAYS BLVD,CANTON,TX,Texas,75103,-95.8628,32.5436
S BROADWAY AVE,TYLER,TX,Texas,75703,-95.3086,32.2617
STATE HIGHWAY 110 N,WHITEHOUSE,TX,Texas,75791,-95.2288,32.2348
S BROADWAY AVE,TYLER,TX,Texas,75701,-95.3012,32.3293
S MAIN ST,LINDALE,TX,Texas,75771,-95.3895,32.4727
S TEXAS ST,EMORY,TX,Texas,75440,-95.7662,32.8734
N JOHNSON ST,MINEOLA,TX,Texas,75773,-95.4856,32.6751
US HIGHWAY 79 S,HENDERSON,TX,Texas,75654,-94.7887,32.1479
N KILGORE ST,KILGORE,TX,Texas,75662,-94.8652,32.3912
BROADWAY AVE,GLADEWATER,TX,Texas,75647,-94.9277,32.5338
BROADWAY AVE,GLADEWATER,TX,Texas,75647,-94.9289,32.534
GILMER RD,LONGVIEW,TX,Texas,75604,-94.7857,32.527
BILL OWENS PKWY,LONGVIEW,TX,Texas,75605,-94.7674,32.5386
JUDSON RD,LONGVIEW,TX,Texas,75605,-94.7434,32.5353
E MARSHALL AVE,LONGVIEW,TX,Texas,75601,-94.7126,32.5039
US HIGHWAY 271 N,GILMER,TX,Texas,75644,-94.9416,32.7418
W 2ND ST,CLARENDON,TX,Texas,79226,-100.8976,34.9427
E 2ND ST,CLARENDON,TX,Texas,79226,-100.8808,34.9347
AVENUE F NW,CHILDRESS,TX,Texas,79201,-100.217,34.4311
N LOUIS TITTLE AVE,MANGUM,OK,Oklahoma,73554,-99.502,34.8866
WILBARGER ST,VERNON,TX,Texas,76384,-99.2893,34.1527
W PARK AVE,IOWA PARK,TX,Texas,76367,-98.6719,33.9525
E WISE ST,BOWIE,TX,Texas,76230,-97.8453,33.557
KEMP BLVD,WICHITA FALLS,TX,Texas,76308,-98.5353,33.8647
OLD JACKSBORO HWY,WICHITA FALLS,TX,Texas,76302,-98.4939,33.8702
SEYMOUR HWY,WICHITA FALLS,TX,Texas,76301,-98.518,33.9096
SHEPPARD ACCESS RD,WICHITA FALLS,TX,Texas,76306,-98.5139,33.9624
COMMUNITY CENTER DR,SHEPPARD AFB,TX,Texas,76311,-98.5139,33.9784
MAIN EXCHANGE,SHEPPARD AFB,TX,Texas,76311,-98.5139,33.9784
W KRAMER RD,BURKBURNETT,TX,Texas,76354,-98.579,34.0797
N MAIN ST,ALTUS,OK,Oklahoma,73521,-99.3346,34.6565
E BROADWAY ST,ALTUS,OK,Oklahoma,73521,-99.3162,34.638
S MAIN ST,FREDERICK,OK,Oklahoma,73542,-99.017,34.3839
S PARK ST,HOBART,OK,Oklahoma,73651,-99.105,35.0167
NW CACHE RD,LAWTON,OK,Oklahoma,73505,-98.4674,34.6231
SE LEE BLVD,LAWTON,OK,Oklahoma,73501,-98.3344,34.5937
NW CACHE RD,LAWTON,OK,Oklahoma,73505,-98.4262,34.6238
NW FORT SILL BLVD,LAWTON,OK,Oklahoma,73507,-98.4051,34.6172
BESSINGER ST,FORT SILL,OK,Oklahoma,73503,-98.3761,34.6618
SHERIDAN RD,FORT SILL,OK,Oklahoma,73503,-98.4087,34.6672
N HIGHWAY 81,DUNCAN,OK,Oklahoma,73533,-97.9661,34.5291
N BROADWAY ST,MARLOW,OK,Oklahoma,73055,-97.9582,34.6578
TOWN EAST MAIN ST,CARNEGIE,OK,Oklahoma,73015,-98.5981,35.1038
S MISSION ST,ANADARKO,OK,Oklahoma,73005,-98.2514,35.0663
S 4TH ST,CHICKASHA,OK,Oklahoma,73018,-97.9341,35.0302
W KINGSMILL AVE,PAMPA,TX,Texas,79065,-100.9711,35.5322
N BANKS ST,PAMPA,TX,Texas,79065,-100.973,35.5514
S HIGHWAY 207,SPEARMAN,TX,Texas,79081,-101.2056,36.189
S 2ND ST,CANADIAN,TX,Texas,79014,-100.3874,35.9131
S MAIN ST,SHATTUCK,OK,Oklahoma,73858,-99.8819,36.2622
S MAIN ST,PERRYTON,TX,Texas,79070,-100.8026,36.385
S MAIN ST,PERRYTON,TX,Texas,79070,-100.8026,36.3813
DOUGLAS AVE,BEAVER,OK,Oklahoma,73932,-100.5196,36.8139
E PANCAKE BLVD,LIBERAL,KS,Kansas,67901,-100.9204,37.0323
W 1ST ST,LIBERAL,KS,Kansas,67901,-100.9243,37.0382
