fips,county,state,state_code,lat,long,obesity.rate,smoking,healthy_food,Completed_High_School,Population,Unemployed,Labor.Force,X80th_Percentile_Income,X20th_Percentile_Income,Drive_Alone_to_Work,Diabetes_prevalence
1001,Autauga,Alabama,AL,32.532237,-86.64644,33,19.81076587,6.7,33076,37367,714,26172,109062,21425,85.78851228,13
1003,Baldwin,Alabama,AL,30.659218,-87.746067,30,18.51331826,7.8,137219,151112,2653,97328,116934,26666,83.76010565,10
1005,Barbour,Alabama,AL,31.870253,-85.405104,41,25.53076754,5.5,13152,17964,324,8537,74745,12495,82.11638926,18
1007,Bibb,Alabama,AL,33.015893,-87.127148,37,23.08481254,7.6,12782,16168,266,8685,84389,16869,87.05767112,14
1009,Blount,Alabama,AL,33.977358,-86.56644,33,22.95495894,7.9,32028,39791,676,25331,95721,21618,87.51959428,15
1011,Bullock,Alabama,AL,32.101759,-85.717261,47,24.90571295,5,5303,7101,175,4818,70400,12503,80.94466312,30
1013,Butler,Alabama,AL,31.751667,-86.681969,47,22.82680655,6.8,11753,13819,338,9263,83270,16618,86.04859335,20
1015,Calhoun,Alabama,AL,33.770516,-85.827909,40,21.23431781,6.6,66793,79108,1635,46209,93318,19267,84.37519859,17
1017,Chambers,Alabama,AL,32.915504,-85.394032,42,23.21615642,6.7,19417,23789,462,15748,83878,17480,86.21145681,18
1019,Cherokee,Alabama,AL,34.069515,-85.654242,38,23.55969744,7.7,15396,18874,338,11604,84157,17419,82.07805373,16
1021,Chilton,Alabama,AL,32.854051,-86.726607,42,23.43204223,7.6,24572,30046,538,19818,89957,18244,83.81509587,19
1023,Choctaw,Alabama,AL,31.990954,-88.248889,47,23.28976436,6.1,7592,9329,218,4670,86909,14739,84.61349693,18
1025,Clarke,Alabama,AL,31.685521,-87.818624,36,24.33650114,5.7,13511,16770,436,7557,90585,10905,88.43794858,25
1027,Clay,Alabama,AL,33.2704,-85.863525,37,25.23084334,7.5,7254,9459,183,6101,87481,18455,87.37401503,16
1029,Cleburne,Alabama,AL,33.671964,-85.516126,34,24.08805026,7.2,8283,10481,183,5806,85132,18074,84.57995579,14
1031,Coffee,Alabama,AL,31.402258,-85.989602,37,21.38337845,7.2,30326,35293,623,21402,107986,22192,87.04408145,16
1033,Colbert,Alabama,AL,34.703112,-87.801457,37,22.0414546,7,33176,38959,885,23646,90070,18950,89.62745882,17
1035,Conecuh,Alabama,AL,31.430926,-86.988722,42,25.84045561,5.8,7449,8833,180,4533,70778,14655,88.93657606,24
1037,Coosa,Alabama,AL,32.931445,-86.243482,45,24.60221405,6.7,6607,8259,135,4549,83863,18345,82.13496933,26
1039,Covington,Alabama,AL,31.243987,-86.448721,36,23.42499011,6.9,21958,26324,534,15653,85919,16811,88.95261505,17
1041,Crenshaw,Alabama,AL,31.730311,-86.320038,35,23.10170187,6,7674,9690,183,6476,89760,16384,80.05672753,20
1043,Cullman,Alabama,AL,34.131923,-86.869267,36,22.62512393,7.6,47078,57726,998,38646,89007,20280,86.5581533,15
1045,Dale,Alabama,AL,31.430654,-85.609476,42,21.4932104,6.3,28858,33509,642,20724,91271,18874,86.40348705,16
1047,Dallas,Alabama,AL,32.333526,-87.11436,42,24.91967884,5.3,21443,26200,807,14711,77570,13034,90.76912111,17
1049,DeKalb,Alabama,AL,34.460915,-85.804021,30,25.08273446,7.3,35918,47990,870,31052,82348,16881,84.18000068,16
1051,Elmore,Alabama,AL,32.597229,-86.142735,35,19.31022763,7.4,48590,56093,979,37565,114545,25965,86.44366197,15
1053,Escambia,Alabama,AL,31.122287,-87.16841,37,25.43302254,6.3,20981,25859,514,14762,75568,14044,89.84899992,19
1055,Etowah,Alabama,AL,34.047641,-86.034263,36,23.13436175,6.7,60905,72032,1428,42723,89468,19000,86.85021178,17
1057,Fayette,Alabama,AL,33.716157,-87.764292,38,24.3260084,7.1,9669,11706,207,6579,79568,15443,85.80079681,20
1059,Franklin,Alabama,AL,34.441989,-87.842814,37,22.69321966,7.4,16047,20786,405,14696,85147,20457,82.88111669,14
1061,Geneva,Alabama,AL,31.092382,-85.821022,41,25.20168823,7,14988,18660,320,11045,82768,15925,85.62313061,19
1063,Greene,Alabama,AL,32.844497,-87.9642,38,26.78555113,3.8,4589,5793,161,2883,57140,9943,72.74254515,22
1065,Hale,Alabama,AL,32.752796,-87.623061,45,24.0259421,6.3,8334,9921,241,6119,77708,12448,88.908013,18
1067,Henry,Alabama,AL,31.516978,-85.239971,35,23.10265591,7.6,9659,12168,247,6944,95722,19778,87.03567758,16
1069,Houston,Alabama,AL,31.158183,-85.296411,39,22.40360776,6.9,62123,72199,1390,46234,99190,19121,88.24763425,16
1071,Jackson,Alabama,AL,34.764114,-85.980056,36,23.92599674,7.1,30781,36999,772,23484,82170,16690,86.4254529,16
1073,Jefferson,Alabama,AL,33.553444,-86.896536,35,18.45945777,6.6,405059,449743,9091,318755,112597,21014,83.22124625,13
1075,Lamar,Alabama,AL,33.787085,-88.087431,34,24.38548317,7.1,8100,9837,179,5849,80778,15443,89.67443653,22
1077,Lauderdale,Alabama,AL,34.904122,-87.650997,32,20.00199462,7.4,55580,63606,1388,42548,92959,20437,88.34127044,15
1079,Lawrence,Alabama,AL,34.529776,-87.321865,33,24.24658859,7.4,18489,23314,447,14306,95759,18795,87.49287053,22
1081,Lee,Alabama,AL,32.604064,-85.353048,31,19.28654297,6.7,88206,97055,2080,76580,107658,17139,83.05470199,10
1083,Limestone,Alabama,AL,34.810239,-86.981399,33,20.33433476,7.7,55844,65942,1154,43854,115903,23314,88.54788929,13
1085,Lowndes,Alabama,AL,32.147888,-86.650586,44,26.27293484,5,5533,7062,204,3587,74640,11613,87.99523384,17
1087,Macon,Alabama,AL,32.387027,-85.692887,51,22.52991392,4.9,9843,12033,337,7850,75565,12567,84.88824802,17
1089,Madison,Alabama,AL,34.764238,-86.55108,34,17.09327873,7.5,227198,247760,4714,185219,134172,25836,87.91547498,13
1091,Marengo,Alabama,AL,32.247591,-87.791091,45,23.13744226,5.7,10974,13092,271,7694,78723,11304,88.00547279,18
1093,Marion,Alabama,AL,34.138219,-87.881551,38,24.17075475,7,16927,21272,446,12932,75279,14965,86.18032366,19
1095,Marshall,Alabama,AL,34.309564,-86.321668,37,22.98773657,7.2,52194,63955,1086,44085,90703,19723,86.69212312,12
1097,Mobile,Alabama,AL,30.684572,-88.196568,38,20.78627817,6.6,241102,278838,7024,189107,96724,18242,85.92950557,15
1099,Monroe,Alabama,AL,31.580332,-87.383266,43,25.51109351,5.4,12605,14718,356,7329,77535,9399,90.30026725,23
1101,Montgomery,Alabama,AL,32.202881,-86.204461,37,19.86332623,6,130592,150570,3260,105777,101999,19303,84.76831778,16
1103,Morgan,Alabama,AL,34.454484,-86.846402,36,20.8010496,7.5,69341,82478,1500,58271,99800,22134,88.46897522,12
1105,Perry,Alabama,AL,32.639005,-87.293827,47,27.26065257,5.1,4873,5883,178,3413,52500,10157,85.3411306,21
1107,Pickens,Alabama,AL,33.2968,-88.096864,39,23.63462545,6.8,11815,14495,276,7923,84022,14460,82.2753262,19
1109,Pike,Alabama,AL,31.798653,-85.941608,38,21.48422776,6.5,16397,19298,504,15428,87322,13139,85.45323741,14
1111,Randolph,Alabama,AL,33.296461,-85.464064,34,23.09714872,7.1,12563,15776,292,9639,80698,16752,88.06831295,18
1113,Russell,Alabama,AL,32.289811,-85.18698,39,22.30623418,6.7,32623,38920,698,23896,85683,15543,86.54810948,17
1115,St. Clair,Alabama,AL,33.719491,-86.311327,37,21.46688268,7.9,51936,61424,1091,40532,104081,25243,86.98794545,14
1117,Shelby,Alabama,AL,33.263043,-86.678089,38,14.97384603,8.3,134769,145427,2525,115939,139637,35194,86.21962997,11
1119,Sumter,Alabama,AL,32.597481,-88.200057,43,23.10577091,5.4,7012,8088,219,4854,65415,8878,84.43570199,18
1121,Talladega,Alabama,AL,33.369314,-86.17593,39,24.00494447,6.8,44979,55993,1213,35769,88559,17027,83.46200598,17
1123,Tallapoosa,Alabama,AL,32.863308,-85.799618,35,23.91970664,7,23121,28667,556,18652,90134,16645,86.01567209,14
1125,Tuscaloosa,Alabama,AL,33.29022,-87.522783,36,19.97069718,7.3,114020,129056,2842,104964,107117,20754,85.61288295,12
1127,Walker,Alabama,AL,33.791558,-87.301094,39,24.71889554,6.8,36641,44782,830,25347,90416,18037,84.50921525,15
1129,Washington,Alabama,AL,31.408503,-88.212404,32,24.31549262,6.7,9375,11346,313,6800,89840,15875,86.52443472,13
1131,Wilcox,Alabama,AL,31.990082,-87.304935,50,25.81292603,3.2,5439,7114,195,2739,62333,11513,89.24694708,19
1133,Winston,Alabama,AL,34.154566,-87.365346,36,24.98734517,7.2,13521,17156,336,10041,79242,16612,79.83069977,22
4001,Apache,Arizona,AZ,35.385084,-109.490172,35,25.03110256,2.2,36140,44949,2019,20487,72423,9376,78.59303669,16
4003,Cochise,Arizona,AZ,31.840129,-109.775163,31,17.34521814,6.7,76582,87639,2899,50594,96469,20919,78.8898686,10
4005,Coconino,Arizona,AZ,35.829692,-111.773728,25,17.12276281,6.8,75204,83080,4301,77507,112048,22585,68.86349381,8
4007,Gila,Arizona,AZ,33.789618,-110.81187,31,22.85761129,5.9,33952,39330,1192,21677,89664,19263,80.25355359,14
4009,Graham,Arizona,AZ,32.931828,-109.87831,34,20.0464738,6.2,20211,23706,743,15351,92512,18509,78.56475716,12
4011,Greenlee,Arizona,AZ,33.238872,-109.242323,30,16.88298339,5.8,5155,5854,178,4520,104612,32369,87.22960646,12
4012,La Paz,Arizona,AZ,33.72761,-114.038806,33,21.53487857,5.7,12351,16053,545,9334,74261,14448,74.66600693,18
4013,Maricopa,Arizona,AZ,33.345176,-112.49893,27,15.40931998,8,2525465,2878815,92847,2310503,126956,28813,75.97304538,9
4015,Mohave,Arizona,AZ,35.717705,-113.749689,31,24.62745264,5.7,136323,158391,4977,87792,85513,20682,79.0660135,14
4017,Navajo,Arizona,AZ,35.390785,-110.321025,33,23.45760045,4.6,58805,70525,3006,40979,84804,14902,72.93139167,15
4019,Pima,Arizona,AZ,32.128038,-111.783657,25,16.97885869,7.5,607912,687804,22075,498695,105843,22336,76.84481305,9
4021,Pinal,Arizona,AZ,32.918521,-111.366339,34,18.85758842,7.7,256746,299353,9171,187480,104232,25869,77.83668798,13
4023,Santa Cruz,Arizona,AZ,31.525733,-110.845228,30,15.65558251,6.7,22445,29302,1673,19636,85592,18208,85.03608943,9
4025,Yavapai,Arizona,AZ,34.631071,-112.577225,24,17.944418,7,159532,175215,4742,106880,97703,23499,76.13078766,11
4027,Yuma,Arizona,AZ,32.773942,-113.910905,38,16.66943536,6.3,97072,132516,16387,99824,88818,20160,81.7307446,12
5001,Arkansas,Arkansas,AR,34.28957,-91.376547,35,24.55451988,5.4,10424,12423,286,9427,88982,15200,85.12886598,19
5003,Ashley,Arkansas,AR,33.190835,-91.772267,42,25.5648805,5.9,11495,13802,418,7751,88804,16507,83.34202974,14
5005,Baxter,Arkansas,AR,36.280268,-92.329949,31,23.86887862,7.2,28194,31775,650,16296,78496,21357,84.07320626,16
5007,Benton,Arkansas,AR,36.337819,-94.256298,31,18.59001998,8.1,154050,173907,3601,137211,129246,31060,84.87746145,10
5009,Boone,Arkansas,AR,36.304299,-93.079236,29,24.5321962,6.8,22712,25983,511,16036,85677,21997,82.71714358,11
5011,Bradley,Arkansas,AR,33.466549,-92.169156,31,24.79037328,6.5,6094,7520,185,4483,85500,17308,80.6010929,18
5013,Calhoun,Arkansas,AR,33.56046,-92.513879,26,25.70690389,4.6,3131,3717,108,2453,90089,17800,84.0552118,10
5015,Carroll,Arkansas,AR,36.33737,-93.540972,30,22.2704269,7.6,17128,19852,400,12783,86349,19770,80.78126321,9
5017,Chicot,Arkansas,AR,33.267139,-91.297158,41,26.46697012,3.1,6010,7441,228,3285,73438,12162,78.39731871,9
5019,Clark,Arkansas,AR,34.053316,-93.176208,26,21.12483512,5.5,11848,13171,368,9691,84870,18430,77.93090248,15
5021,Clay,Arkansas,AR,36.367302,-90.418704,37,27.64641688,6.5,8680,10525,278,5691,73131,13947,81.96721312,10
5023,Cleburne,Arkansas,AR,35.566315,-92.05995,34,24.61708309,7.3,16066,18693,418,9226,84427,21850,81.02727454,13
5025,Cleveland,Arkansas,AR,33.893201,-92.188714,38,25.18940752,6.9,5105,5699,127,3219,93726,19844,88.50536193,16
5027,Columbia,Arkansas,AR,33.223038,-93.232843,44,25.22028024,6.3,12590,14661,410,9140,80126,14071,84.87423521,19
5029,Conway,Arkansas,AR,35.265702,-92.689248,40,24.57096304,6.6,12610,14486,359,8285,85789,18312,80.65713964,17
5031,Craighead,Arkansas,AR,35.827729,-90.631421,39,22.37882062,6.7,61602,68964,1555,55652,96554,20441,83.67670039,14
5033,Crawford,Arkansas,AR,35.583011,-94.236219,39,23.55716157,7,35909,42256,894,26922,90203,21281,86.49385561,14
5035,Crittenden,Arkansas,AR,35.197559,-90.30512,37,24.08845284,6.6,25582,30967,910,21422,87108,18040,81.65668859,17
5037,Cross,Arkansas,AR,35.285692,-90.763984,42,25.77294884,6.8,9630,11513,314,7411,90930,20559,82.27327048,19
5039,Dallas,Arkansas,AR,33.967823,-92.653999,40,24.70651664,5.7,4319,5145,134,2840,70960,14557,83.87538514,17
5041,Desha,Arkansas,AR,33.828752,-91.244103,48,27.87351565,4.7,6344,7826,241,5402,66820,14476,86.18857902,10
5043,Drew,Arkansas,AR,33.587242,-91.722778,35,24.27237401,6.3,10135,11661,408,7864,96306,15736,82.89896007,18
5045,Faulkner,Arkansas,AR,35.146548,-92.336928,37,20.98739525,7.2,69673,75869,1875,62431,105604,21322,84.39499257,10
5047,Franklin,Arkansas,AR,35.508558,-93.887665,42,26.5875286,6.8,10061,12017,252,7494,82008,14504,82.53341434,14
5049,Fulton,Arkansas,AR,36.381322,-91.819285,32,28.17232414,5.8,7576,8851,199,4962,71036,16216,82.10241261,13
5051,Garland,Arkansas,AR,34.578852,-93.146932,29,22.68978571,6.4,63688,71467,1537,41346,88905,18932,81.64753143,16
5053,Grant,Arkansas,AR,34.285568,-92.422979,34,22.58860308,7.4,11550,12720,267,8403,110200,21578,85.71615435,17
5055,Greene,Arkansas,AR,36.120607,-90.566346,38,24.81396893,6.6,26538,30074,699,20065,91189,21079,83.43653251,15
5057,Hempstead,Arkansas,AR,33.735953,-93.664355,32,25.19582166,5.9,11838,14329,380,9951,85191,20651,83.11558902,21
5059,Hot Spring,Arkansas,AR,34.315177,-92.944147,35,24.90064033,6.7,20851,24293,510,14019,85199,19422,83.23962104,16
5061,Howard,Arkansas,AR,34.083064,-93.990931,43,25.16570567,5.7,7484,8781,186,5711,82464,16591,83.16076294,10
5063,Independence,Arkansas,AR,35.737499,-91.559942,30,24.55823282,6.8,21610,25122,659,16527,82876,19944,82.1089519,11
5065,Izard,Arkansas,AR,36.094879,-91.913625,32,24.88799184,7.2,8542,10195,269,4912,81345,20052,75.98627787,16
5067,Jackson,Arkansas,AR,35.596467,-91.223205,39,27.96395823,5.8,9786,12207,380,5840,73660,15583,79.52354974,29
5069,Jefferson,Arkansas,AR,34.277239,-91.929673,43,24.82536147,6.2,40405,46904,1520,27740,80795,15669,86.76046457,15
5071,Johnson,Arkansas,AR,35.573359,-93.466322,40,25.50394113,6.9,13743,17421,469,10278,74450,16890,78.89676605,13
5073,Lafayette,Arkansas,AR,33.240629,-93.611514,46,25.12357141,6.1,3908,4903,115,2466,79685,12995,81.34757601,19
5075,Lawrence,Arkansas,AR,36.041098,-91.101153,38,26.23568063,5.8,9447,11229,284,6817,76509,18478,85.41344069,12
5077,Lee,Arkansas,AR,34.779505,-90.779717,41,28.8983718,4,5122,6754,127,2833,78271,11443,78.31632653,14
5079,Lincoln,Arkansas,AR,33.956385,-91.742355,45,26.90250101,5.7,8363,10314,173,3950,84114,17221,86.08779858,15
5081,Little River,Arkansas,AR,33.701941,-94.236287,34,24.30533421,6.8,7734,8694,238,5518,89676,17914,87.30624215,21
5083,Logan,Arkansas,AR,35.218654,-93.72091,30,25.69848027,6.8,13201,15309,373,8583,74887,19630,80.64334721,15
5085,Lonoke,Arkansas,AR,34.755114,-91.894132,41,21.98499817,7.5,43008,48254,1109,34468,107391,25281,86.55220871,14
5087,Madison,Arkansas,AR,36.012545,-93.724053,31,25.76937161,6.6,9015,11179,189,7427,87420,17987,83.58254972,12
5089,Marion,Arkansas,AR,36.266664,-92.678577,27,26.17196899,6.6,10900,12600,267,6673,69860,15405,78.51166103,14
5091,Miller,Arkansas,AR,33.305505,-93.901502,39,25.09874821,5.8,25643,29661,809,19750,93598,17294,85.46501682,13
5093,Mississippi,Arkansas,AR,35.766944,-90.052207,43,27.03544525,5.9,22114,27251,891,17358,85976,17044,82.6809299,18
5095,Monroe,Arkansas,AR,34.679512,-91.20331,44,28.2298556,5.9,3968,5032,119,2761,80836,13565,78.2472067,19
5097,Montgomery,Arkansas,AR,34.545656,-93.664153,24,26.60667531,6.1,5336,6687,138,2970,71400,16546,80.91795033,10
5099,Nevada,Arkansas,AR,33.666699,-93.305072,43,25.45993399,5.4,5283,5845,145,3662,67534,15438,83.99361022,15
5101,Newton,Arkansas,AR,35.910742,-93.215898,40,25.25940361,5.8,4952,5726,117,3335,75146,14118,81.9781767,13
5103,Ouachita,Arkansas,AR,33.591168,-92.878413,41,25.18220869,5.7,14094,16380,508,9838,76797,14908,88.40363054,19
5105,Perry,Arkansas,AR,34.946363,-92.926877,36,25.00290373,6.8,6153,7252,175,4275,96029,22993,81.86709712,12
5107,Phillips,Arkansas,AR,34.423687,-90.855593,45,27.08667665,3,9632,11999,383,6379,73141,12143,83.16617806,21
5109,Pike,Arkansas,AR,34.158191,-93.658659,29,24.98214878,6.3,6576,7525,164,4250,82078,19672,79.71109652,17
5111,Poinsett,Arkansas,AR,35.56887,-90.681104,41,27.58857309,5.3,13088,16292,350,10279,73400,17580,82.39143985,21
5113,Polk,Arkansas,AR,34.490915,-94.230884,36,25.15533194,5.1,11934,14053,339,8121,72557,16276,76.92307692,14
5115,Pope,Arkansas,AR,35.456557,-93.026818,35,23.4720615,7,34215,40501,1251,28869,92558,18660,84.01598782,15
5117,Prairie,Arkansas,AR,34.831116,-91.55362,36,24.91368306,5.7,4974,5978,156,3586,84162,18462,74.84444444,13
5119,Pulaski,Arkansas,AR,34.770311,-92.312996,34,18.71228315,6.6,241026,266765,6472,190248,109250,21899,82.79817883,12
5121,Randolph,Arkansas,AR,36.341298,-91.028441,33,27.33538318,6,10139,12232,284,7301,72934,17828,81.80347161,17
5123,St. Francis,Arkansas,AR,35.022838,-90.751506,48,27.33915447,5.2,14675,17914,425,8197,70886,12526,82.56257449,15
5125,Saline,Arkansas,AR,34.648525,-92.674463,30,20.48398388,7.7,74944,82700,1664,59114,115120,30938,85.11406245,11
5127,Scott,Arkansas,AR,34.858869,-94.063641,38,27.95726402,6.5,5539,6999,147,4314,66345,14564,77.7442371,17
5129,Searcy,Arkansas,AR,35.896387,-92.695888,25,27.55754529,5.6,4736,5793,133,2914,68660,15971,72.75439178,18
5131,Sebastian,Arkansas,AR,35.196981,-94.274989,35,23.87387095,7,71458,85006,1864,56698,89992,20401,81.92248943,15
5133,Sevier,Arkansas,AR,33.994877,-94.243279,33,24.64915899,6.7,8176,10686,265,5513,90629,19641,71.4146069,15
5135,Sharp,Arkansas,AR,36.173399,-91.471069,41,28.539328,6,10354,12406,285,5742,66689,15742,78.56289469,21
5137,Stone,Arkansas,AR,35.857001,-92.140482,41,27.63147879,5.7,7481,9218,223,4726,73965,14845,79.07186303,14
5139,Union,Arkansas,AR,33.168219,-92.598145,35,22.53430585,6.1,22734,26763,829,15847,95896,16981,89.50849436,13
5141,Van Buren,Arkansas,AR,35.582953,-92.515976,37,25.76817662,6.6,10415,12235,286,5741,79506,16849,81.47751606,16
5143,Washington,Arkansas,AR,35.978001,-94.217269,32,20.9513509,7.6,119852,141000,3053,124967,103276,21998,78.57487285,10
5145,White,Arkansas,AR,35.255118,-91.753034,33,24.02774104,7.1,43133,51108,1519,33800,91203,19129,82.81629602,17
5147,Woodruff,Arkansas,AR,35.192777,-91.244535,33,26.68632976,6.3,3809,4662,146,2773,83273,12857,81.63884674,27
5149,Yell,Arkansas,AR,34.997713,-93.408303,37,25.00299318,7.1,11337,14497,336,8417,85538,20955,78.27344532,14
6001,Alameda,California,CA,37.647139,-121.912488,22,11.11511431,8.9,1037138,1172662,24671,844346,196571,38001,60.92727852,7
6003,Alpine,California,CA,38.621783,-119.798352,17,18.47694078,6.8,702,770,28,551,127917,30242,61.81818182,7
6005,Amador,California,CA,38.443549,-120.653858,30,15.89845523,8.3,27271,30295,572,14900,116042,26361,78.76665914,17
6007,Butte,California,CA,39.665336,-121.603209,30,16.64906956,7.4,131645,147509,5080,99242,110060,20269,75.92053691,10
6009,Calaveras,California,CA,38.191068,-120.554107,28,15.59175944,8.2,31424,34848,812,21428,120885,28830,76.77342823,11
6011,Colusa,California,CA,39.177739,-122.237563,39,15.59040772,7.8,9745,13677,1407,10993,104097,24039,78.66722991,16
6013,Contra Costa,California,CA,37.919479,-121.951543,25,11.21125472,8.9,704257,787178,17261,561757,196326,41345,67.5024248,9
6015,Del Norte,California,CA,41.749903,-123.980998,34,19.1924356,6.3,15726,19644,555,9674,93442,18552,75.27721204,17
6017,El Dorado,California,CA,38.785612,-120.534225,26,13.46793746,8.5,127999,137028,3237,92022,161711,33761,76.92574975,8
6019,Fresno,California,CA,36.761006,-119.655019,33,15.73731263,7.4,458905,604137,32668,450760,110629,21710,78.51317575,10
6021,Glenn,California,CA,39.602546,-122.4017,34,17.10568519,7.7,13433,17951,796,12997,96257,19138,78.96125159,11
6023,Humboldt,California,CA,40.706655,-123.926176,25,17.08981783,7.5,83652,92463,2253,62507,98646,19669,71.3387151,10
6025,Imperial,California,CA,33.040814,-115.3554,33,15.68441039,6.2,76789,110125,13080,71411,100019,16740,80.78122104,9
6027,Inyo,California,CA,36.56216,-117.404209,27,15.31573912,7.7,11696,13204,310,8760,107279,27552,67.70147771,12
6029,Kern,California,CA,35.346629,-118.729506,31,16.68679884,7.5,398483,537799,30216,390999,109496,22297,80.53597994,10
6031,Kings,California,CA,36.072478,-119.81553,34,16.88703305,7.5,68158,92916,4566,57788,106045,25833,77.00311625,13
6033,Lake,California,CA,39.094802,-122.746757,22,18.2953587,6.9,39822,46426,1471,29158,96832,19690,68.84583996,11
6035,Lassen,California,CA,40.715287,-120.621223,33,18.46842609,7.7,18808,22615,453,9869,108421,24975,80.49160672,15
6037,Los Angeles,California,CA,34.196398,-118.261862,22,12.67333179,8.4,5449836,6886895,227288,5121584,141150,26411,74.0006044,9
6039,Madera,California,CA,37.209821,-119.749802,37,16.68531406,7.4,70154,97527,4294,61945,111480,25665,76.58439809,12
6041,Marin,California,CA,38.051367,-122.746396,18,9.895346526,9.2,177644,190403,3193,139979,247932,42948,64.08813914,8
6043,Mariposa,California,CA,37.574343,-119.911721,16,16.18014689,7.6,12349,13632,350,7612,94000,20707,60.84008843,8
6045,Mendocino,California,CA,39.432388,-123.442881,30,16.70605829,7.6,53659,62005,1546,38934,101775,21346,72.56214674,11
6047,Merced,California,CA,37.194806,-120.722802,33,16.40976835,7.2,110866,160388,9360,116226,103931,22988,79.08518757,13
6049,Modoc,California,CA,41.592918,-120.71837,26,18.89662932,6.9,5715,6740,224,3171,82839,20207,73.1256419,12
6051,Mono,California,CA,37.915836,-118.875167,29,13.94771785,7.8,8792,9927,313,8508,108900,37638,50.36135871,11
6053,Monterey,California,CA,36.240104,-121.315578,25,13.75101207,8.4,197149,275668,13799,222516,136456,32439,71.64721497,9
6055,Napa,California,CA,38.5071,-122.325904,24,12.30532666,9.1,83996,98223,2104,74004,173367,39526,75.75175482,10
6057,Nevada,California,CA,39.297508,-120.771343,18,13.92231179,8.1,71714,76000,1617,48639,133318,27873,72.69210152,6
6059,Orange,California,CA,33.675687,-117.777207,20,10.8726147,9.1,1853379,2168424,45087,1623421,175699,37557,78.31920443,9
6061,Placer,California,CA,39.062032,-120.722718,20,11.7148613,8.9,255620,270397,5839,187932,166488,36560,79.4516652,7
6063,Plumas,California,CA,39.992295,-120.824371,24,15.72172582,7.9,13770,14479,607,7903,108400,24251,77.23446894,7
6065,Riverside,California,CA,33.729828,-116.002239,28,13.62425229,8.2,1279733,1559869,46151,1104035,130021,27335,78.34960722,10
6067,Sacramento,California,CA,38.450136,-121.344329,30,14.04300188,8.1,902315,1028580,26096,712394,131065,27600,77.14377653,9
6069,San Benito,California,CA,36.611651,-121.085811,36,13.12595378,9.1,31342,38958,1587,31432,152368,40157,80.81829715,10
6071,San Bernardino,California,CA,34.856661,-116.181571,31,14.98977766,8,1080379,1350620,37010,967719,120734,26740,79.59492725,10
6073,San Diego,California,CA,33.023604,-116.776117,20,13.15158062,8.6,1964540,2246571,50643,1590591,153988,32742,76.19007535,8
6075,San Francisco,California,CA,37.727239,-123.032229,17,11.37516455,8.8,615126,695330,12774,583186,239839,33838,32.09198857,6
6077,San Joaquin,California,CA,37.934982,-121.272244,36,14.91008005,7.9,370612,467455,19223,327077,127725,26917,78.75024328,10
6079,San Luis Obispo,California,CA,35.388189,-120.448897,29,13.64797462,8.6,172343,188857,4017,140931,143093,30777,72.95463239,9
6081,San Mateo,California,CA,37.414672,-122.371546,23,10.15945224,9.4,493904,551290,9397,460044,248728,49959,67.79857582,8
6083,Santa Barbara,California,CA,34.536677,-120.038364,24,13.42077807,8.7,222673,275092,8039,217882,150975,32291,67.95613855,8
6085,Santa Clara,California,CA,37.221614,-121.68954,20,9.577855426,9.3,1179755,1334958,26196,1053723,241085,48516,74.70628937,9
6087,Santa Cruz,California,CA,37.012347,-122.007789,19,12.78727579,8.4,155407,180000,6747,142277,173757,31221,69.04477095,6
6089,Shasta,California,CA,40.760514,-122.043556,27,17.10733117,7.2,115249,126524,3475,74353,108446,22168,81.47682183,12
6091,Sierra,California,CA,39.576925,-120.521993,19,16.33135843,6.3,2235,2420,71,1326,116353,20145,71.9665272,7
6093,Siskiyou,California,CA,41.587986,-122.533287,35,17.60059328,6.7,28587,31682,1118,17227,91754,20032,75.38919556,10
6095,Solano,California,CA,38.267226,-121.939594,29,13.83229544,8.5,268560,303699,7855,209527,147777,36257,76.51190772,9
6097,Sonoma,California,CA,38.525182,-122.92611,24,12.89220368,8.7,319034,359314,6966,259394,153930,35722,74.57398313,8
6099,Stanislaus,California,CA,37.562316,-121.002831,32,15.84953133,7.9,271135,343626,14701,243454,116540,26490,81.76743344,10
6101,Sutter,California,CA,39.03619,-121.70394,30,16.05174092,7.1,48953,62626,3345,45785,116410,25718,78.91613104,13
6103,Tehama,California,CA,40.126157,-122.232274,35,18.23412334,6.8,37070,43850,1422,25650,91412,19202,81.09796734,11
6105,Trinity,California,CA,40.647858,-123.114666,29,18.972403,7,9095,9847,257,4693,80029,17668,67.51233263,10
6107,Tulare,California,CA,36.228834,-118.781055,37,17.52876204,7,192226,271351,19627,203980,102769,20912,78.94724718,11
6109,Tuolumne,California,CA,38.021434,-119.964733,30,15.79038274,7.4,37475,41304,951,21317,118369,24156,82.92561407,8
6111,Ventura,California,CA,34.358748,-119.133145,20,12.33545573,8.9,484890,570146,15221,423390,165716,38748,78.69635354,9
6113,Yolo,California,CA,38.679609,-121.90275,24,13.79468735,8.6,110407,127586,4438,108658,147060,25009,69.11643695,8
6115,Yuba,California,CA,39.27013,-121.344259,29,17.23110214,6.9,39527,48033,1815,29997,110141,24495,79.61016064,13
8001,Adams,Colorado,CO,39.874325,-104.331872,29,18.39341896,8.5,271665,324255,8065,275440,125794,34026,78.41518938,7
8003,Alamosa,Colorado,CO,37.568442,-105.788041,31,19.46069168,7.7,8355,9619,313,8726,78827,17346,78.70019694,8
8005,Arapahoe,Colorado,CO,39.644554,-104.331706,23,15.02278969,8.8,405548,437887,9930,368504,143135,36928,76.96850107,7
8007,Archuleta,Colorado,CO,37.202395,-107.050863,24,15.48848578,7.8,9360,10137,220,6937,93793,23830,72.86611234,6
8009,Baca,Colorado,CO,37.30978,-102.543741,31,21.84906743,7.2,2249,2608,37,2175,76780,16603,78.34793492,14
8011,Bent,Colorado,CO,37.931891,-103.077584,33,22.42312523,6.5,3843,4534,56,1919,69947,15596,76.02501737,12
8013,Boulder,Colorado,CO,40.094963,-105.397704,14,12.82269869,8.8,202159,212755,4640,196991,167489,32806,65.02082645,6
8014,Broomfield,Colorado,CO,39.953593,-105.050787,20,12.45624769,8.9,45553,46992,992,40520,172707,45446,75.15208975,7
8015,Chaffee,Colorado,CO,38.734599,-106.300025,16,17.4988719,8.5,14519,15523,235,9871,108617,23932,68.59153221,8
8017,Cheyenne,Colorado,CO,38.835646,-102.601791,24,18.96926059,8,1226,1338,19,1173,96333,23423,77.88461539,10
8019,Clear Creek,Colorado,CO,39.689403,-105.670783,21,14.07672294,9,7274,7376,150,6110,119857,31875,68.92857143,6
8021,Conejos,Colorado,CO,37.213406,-106.176447,27,19.28174737,7.9,4650,5286,152,4165,72547,15843,70.42881647,10
8023,Costilla,Colorado,CO,37.277547,-105.42894,25,20.3299682,2.9,2261,2793,74,1888,61700,12433,64.34977579,18
8025,Crowley,Colorado,CO,38.30618,-103.772736,29,23.74416392,6.9,3343,3883,65,1525,76426,21353,85.66994309,8
8027,Custer,Colorado,CO,38.101996,-105.373512,21,16.98898051,7.7,3568,3812,63,2088,91906,24254,74.3030303,11
8029,Delta,Colorado,CO,38.861595,-107.864892,24,21.62947443,7.7,20222,22293,484,14519,93575,19413,72.47295785,11
8031,Denver,Colorado,CO,39.76185,-104.881105,17,15.28350018,8.2,447780,508718,11348,421322,141800,28229,69.12411938,5
8033,Dolores,Colorado,CO,37.733823,-108.506219,22,20.08055453,3.9,1312,1398,35,1164,92542,24452,65.13409962,8
8035,Douglas,Colorado,CO,39.325414,-104.925987,20,10.66768897,9.5,217681,221839,4662,196248,200684,61133,76.72104414,6
8037,Eagle,Colorado,CO,39.626992,-106.695169,16,13.27573486,9.2,33983,38505,832,37073,152477,38895,75.5143359,4
8039,Elbert,Colorado,CO,39.315157,-104.114076,25,15.22764788,8.8,17726,18326,335,15344,177172,46384,80.17285957,7
8041,El Paso,Colorado,CO,38.827383,-104.527472,23,15.27610079,7.9,426112,452115,11282,342735,128379,31006,77.02806668,7
8043,Fremont,Colorado,CO,38.45517,-105.424958,30,21.34941867,7,33274,36942,703,15251,94027,21945,80.54126436,8
8045,Garfield,Colorado,CO,39.599352,-107.90978,25,16.91030603,8.8,34613,39298,889,32910,124051,35729,70.07942658,5
8047,Gilpin,Colorado,CO,39.861156,-105.528878,22,14.49305841,9.5,4847,4923,88,3820,136781,39256,75.36501195,6
8049,Grand,Colorado,CO,40.113065,-106.110837,18,17.08416008,9,10952,11581,213,9978,124500,31075,64.7107634,7
8051,Gunnison,Colorado,CO,38.670499,-107.05688,14,15.01971462,8.6,10323,10601,248,11594,125271,24788,57.03273495,3
8053,Hinsdale,Colorado,CO,37.811519,-107.383974,24,16.2276178,8,659,703,16,438,109500,29188,70.43010753,10
8055,Huerfano,Colorado,CO,37.687815,-104.959928,26,17.7613281,6.7,4820,5216,146,2542,77384,16771,70.43513623,9
8057,Jackson,Colorado,CO,40.663432,-106.329248,24,19.72446146,8.1,851,974,23,1003,91500,25719,64.43057722,10
8059,Jefferson,Colorado,CO,39.579511,-105.245462,21,14.7301321,8.8,392075,414825,8598,338722,153657,38817,77.62568354,6
8061,Kiowa,Colorado,CO,38.387663,-102.756849,28,20.14724116,5,953,996,15,965,83731,19389,78.35051546,9
8063,Kit Carson,Colorado,CO,39.30534,-102.603023,32,19.37180401,8.4,4654,5198,73,4365,88267,27448,74.74626866,11
8065,Lake,Colorado,CO,39.205341,-106.350079,27,18.42056479,7.8,4658,5563,116,4994,96263,19543,72.13504517,8
8067,La Plata,Colorado,CO,37.287367,-107.839718,18,16.16367176,8.7,38002,39773,810,32305,132874,30827,73.63106392,5
8069,Larimer,Colorado,CO,40.658093,-105.486764,21,14.52251493,8.5,217391,226787,4859,206483,134900,30306,74.89190257,5
8071,Las Animas,Colorado,CO,37.318831,-104.04411,32,18.54236198,6.7,9248,10527,258,6635,81147,16228,68.97159993,13
8073,Lincoln,Colorado,CO,38.99374,-103.507555,30,20.86579814,7.7,3743,4117,56,2431,96778,20050,71.76870748,7
8075,Logan,Colorado,CO,40.728091,-103.090464,36,19.32071432,7.9,13578,15155,263,11167,93376,22084,77.10646042,10
8077,Mesa,Colorado,CO,39.019524,-108.460571,26,18.61156613,7.5,94325,104174,2628,76614,103289,23046,78.90799867,9
8079,Mineral,Colorado,CO,37.549067,-107.003236,18,14.82031175,8.4,679,697,12,533,107750,33917,60.49382716,9
8081,Moffat,Colorado,CO,40.610864,-108.217154,20,20.08001081,7.8,7889,8893,255,7450,110977,20024,71.57310705,8
8083,Montezuma,Colorado,CO,37.338025,-108.595786,28,20.15178885,7.4,16760,18612,552,13038,91437,22083,80.53985045,13
8085,Montrose,Colorado,CO,38.407507,-108.266282,20,19.02446757,7.4,26458,29724,683,22010,94443,21998,77.88116981,8
8087,Morgan,Colorado,CO,40.263159,-103.81221,35,19.57244637,8.6,14522,18401,436,16582,93808,23371,74.1202071,9
8089,Otero,Colorado,CO,37.88417,-103.72126,35,20.87328309,6.3,10585,12137,345,8495,74523,13268,77.61890867,13
8091,Ouray,Colorado,CO,38.154731,-107.78848,21,13.95226845,8.5,3765,3851,71,2454,120955,30384,65.48984996,7
8093,Park,Colorado,CO,39.118914,-105.717648,19,15.93879748,8,13822,14149,282,11292,130349,32042,73.91601229,6
8095,Phillips,Colorado,CO,40.594712,-102.345105,31,17.93372121,9.1,2478,2800,42,2631,93320,27153,74.25118234,10
8097,Pitkin,Colorado,CO,39.217541,-106.916162,15,11.98674382,9,13255,13680,354,11395,144814,39461,50.66496164,4
8099,Prowers,Colorado,CO,37.958181,-102.392161,36,19.39859517,7.1,6258,7774,168,6408,87888,20403,81.06858939,13
8101,Pueblo,Colorado,CO,38.162765,-104.484668,31,20.01992928,6.6,101744,113465,3129,76276,93553,19178,82.48687294,10
8103,Rio Blanco,Colorado,CO,39.972622,-108.200716,23,18.86987999,8.4,3871,4213,111,3019,103246,22987,71.0982659,7
8105,Rio Grande,Colorado,CO,37.485853,-106.453128,29,17.95228515,7.7,6663,7655,226,5506,94172,17035,78.0672456,11
8107,Routt,Colorado,CO,40.483664,-106.987702,16,14.46441944,8.6,17952,18540,359,16491,143852,36649,68.46586911,5
8109,Saguache,Colorado,CO,38.031651,-106.234666,27,20.03993969,7.4,4011,4829,144,3606,79188,16322,71.48080439,14
8111,San Juan,Colorado,CO,37.781049,-107.670257,20,16.88102846,5.3,455,485,17,570,113833,27938,57.52212389,8
8113,San Miguel,Colorado,CO,38.009319,-108.427263,16,13.37840856,8.7,5856,6049,163,5900,135186,26610,53.52589641,4
8115,Sedgwick,Colorado,CO,40.871568,-102.355358,25,19.61427088,7.9,1404,1614,25,1231,86269,18308,64.46370531,11
8117,Summit,Colorado,CO,39.621023,-106.137555,15,14.47743622,8.6,21696,23359,419,23179,134994,39427,76.62290488,4
8119,Teller,Colorado,CO,38.869976,-105.187365,23,16.85094594,8.7,18209,18731,396,12821,122142,32299,76.81887886,7
8121,Washington,Colorado,CO,39.96579,-103.209744,30,20.1636911,7.4,3115,3390,59,3000,94625,23570,70.81659973,13
8123,Weld,Colorado,CO,40.555961,-104.383666,29,16.99149149,8.7,173139,196540,4331,170001,128216,32147,80.39688353,8
8125,Yuma,Colorado,CO,40.00077,-102.421649,31,18.94877945,8,5887,6646,98,6224,95106,27045,70.50882658,8
9001,Fairfield,Connecticut,CT,41.227413,-73.367061,21,11.6771157,8.6,579090,643285,17476,481023,210724,36359,72.20102379,7
9003,Hartford,Connecticut,CT,41.806053,-72.732916,27,14.19719025,8.2,558936,623222,18770,483303,147510,29501,81.11189357,10
9005,Litchfield,Connecticut,CT,41.791883,-73.235404,27,14.96616942,8.6,125137,134619,3639,105182,150086,35083,83.18913407,8
9007,Middlesex,Connecticut,CT,41.433003,-72.52278,27,13.24473912,8.5,112429,119333,2993,93696,160593,35115,81.80927122,8
9009,New Haven,Connecticut,CT,41.349718,-72.900203,29,15.66265147,8,538054,597200,18099,461613,141498,27346,78.31617804,10
9011,New London,Connecticut,CT,41.472652,-72.108634,30,15.73605053,7.9,173532,187957,4963,137386,140283,31745,80.43311767,10
9013,Tolland,Connecticut,CT,41.858081,-72.340978,26,14.31187368,8.3,91301,96087,2840,87047,160248,36040,80.30241857,8
9015,Windham,Connecticut,CT,41.824999,-71.990702,31,16.43509682,8.1,71953,81392,2584,64281,123887,27395,83.2595496,11
10001,Kent,Delaware,DE,39.097088,-75.502982,38,19.72127605,8,103220,118054,3314,79411,109107,26507,82.39360847,14
10003,New Castle,Delaware,DE,39.575915,-75.644132,30,18.38650858,8.3,351294,383326,11048,300148,140524,30678,79.65963867,11
10005,Sussex,Delaware,DE,38.673227,-75.337024,33,19.05165969,8.3,147990,167940,4058,107706,118772,29306,83.07756882,13
11001,District of Columbia,District of Columbia,DC,38.904247,-77.016517,24,15.38218526,8.5,449266,494116,22487,409969,189292,26459,33.51879394,8
12001,Alachua,Florida,FL,29.67574,-82.357221,27,17.87556831,7.5,149867,161824,4105,139217,107910,17506,74.15881996,9
12003,Baker,Florida,FL,30.324442,-82.302284,38,25.23313707,7,16339,19065,368,11852,117329,26339,83.81078025,15
12005,Bay,Florida,FL,30.15914,-85.534395,30,21.88223868,6.9,116444,128438,3255,84235,102651,24142,81.37406395,12
12007,Bradford,Florida,FL,29.952386,-82.166698,37,27.39370554,7.4,15830,19879,347,11062,86998,15598,85.73262032,13
12009,Brevard,Florida,FL,28.298311,-80.700333,29,20.06715131,7.3,400939,434825,9062,284087,110950,25747,81.67971993,13
12011,Broward,Florida,FL,26.193535,-80.476683,25,16.8837566,8.3,1211715,1362196,31706,1040519,121263,25434,79.52341679,9
12013,Calhoun,Florida,FL,30.388801,-85.197915,37,25.50572387,7.3,8093,10524,197,4819,81466,16816,77.41866894,17
12015,Charlotte,Florida,FL,26.906396,-82.003657,28,21.33495756,6.9,135399,149434,2626,71865,97880,23860,79.48147416,13
12017,Citrus,Florida,FL,28.850292,-82.595552,29,23.13017443,6.6,102096,115528,2281,47377,82350,20026,82.34917127,13
12019,Clay,Florida,FL,29.986584,-81.865036,33,20.14853223,8,132714,144566,3251,107718,119324,30922,83.65722192,12
12021,Collier,Florida,FL,26.118786,-81.400955,22,15.9715377,7.9,245825,282120,5586,180626,147298,30945,75.11640877,9
12023,Columbia,Florida,FL,30.221651,-82.623371,37,24.8233911,7.2,41734,48455,966,29797,94016,19996,80.48048048,15
12027,DeSoto,Florida,FL,27.190581,-81.806253,31,26.25385746,7.1,19441,26434,499,14185,73603,18219,68.64957776,14
12029,Dixie,Florida,FL,29.552675,-83.236232,33,30.90940185,6.9,9826,12527,222,5828,84370,17382,74.36419125,15
12031,Duval,Florida,FL,30.335245,-81.648113,32,18.63880738,7.3,574389,639634,16056,491946,108128,24850,80.27026556,13
12033,Escambia,Florida,FL,30.529998,-87.320322,29,19.95925886,7.1,190954,211050,4666,145919,98294,24357,75.47256865,13
12035,Flagler,Florida,FL,29.474891,-81.286253,27,20.06659126,7.2,77338,83852,1795,47030,102358,25601,81.70657133,13
12037,Franklin,Florida,FL,29.677794,-84.815213,34,25.95859994,7.5,7359,9123,164,4650,96303,17924,80.53244592,12
12039,Gadsden,Florida,FL,30.578687,-84.612607,44,22.52764693,6.8,25666,32151,772,18833,78764,18515,85.86028616,21
12041,Gilchrist,Florida,FL,29.723456,-82.795801,38,25.99520359,7.8,10476,12269,245,7145,85148,20361,73.77375843,15
12043,Glades,Florida,FL,26.95481,-81.19082,39,26.04906404,5.2,7608,10212,211,5384,82885,19097,70.91405184,21
12045,Gulf,Florida,FL,29.859238,-85.272013,33,23.82803351,7.4,10215,11954,277,5772,91317,22218,76.22648145,13
12047,Hamilton,Florida,FL,30.491187,-82.951071,40,27.71407492,5.9,7587,10388,178,4340,77853,14298,82.38327905,15
12049,Hardee,Florida,FL,27.492846,-81.82158,40,24.12354728,5.9,13479,17470,428,8502,76357,15396,82.3381784,16
12051,Hendry,Florida,FL,26.539967,-81.152114,35,23.65610904,6.3,17024,25671,907,15587,85769,18509,62.55943407,13
12053,Hernando,Florida,FL,28.555995,-82.525969,32,23.04014639,6.8,122540,139440,3017,71923,92038,22195,79.87701223,15
12055,Highlands,Florida,FL,27.34108,-81.342353,30,22.4199199,6.5,67754,79028,1642,36094,76312,19375,79.32511238,16
12057,Hillsborough,Florida,FL,27.893154,-82.379991,26,17.61545313,7.7,863435,973813,23152,750269,118579,25020,79.05317262,11
12059,Holmes,Florida,FL,30.862007,-85.815939,36,28.7547026,6.4,11079,14080,246,6947,80065,15623,82.14338289,15
12061,Indian River,Florida,FL,27.700528,-80.574789,27,20.60363382,7.1,105895,118504,2508,65457,110918,24717,80.47657919,11
12063,Jackson,Florida,FL,30.789249,-85.208814,37,25.80900875,7.3,28246,35094,623,17145,77114,16614,87.088776,16
12065,Jefferson,Florida,FL,30.396898,-83.921761,35,22.17299495,7.5,9000,10980,187,5623,99049,18933,83.79204893,14
12067,Lafayette,Florida,FL,29.990066,-83.17851,34,27.13638098,7.6,4469,5938,86,2855,88505,18688,87.92672773,14
12069,Lake,Florida,FL,28.764113,-81.712282,31,18.86435718,7.4,228994,255871,5108,159027,101268,25511,81.40702438,13
12071,Lee,Florida,FL,26.563273,-81.984182,25,19.4469091,7.6,490538,554846,10911,348027,111874,26340,79.0129889,11
12073,Leon,Florida,FL,30.45931,-84.2778,31,18.60412712,7.4,161065,172223,4780,155493,111034,21223,80.1947375,8
12075,Levy,Florida,FL,29.271854,-82.831233,33,25.42701561,7.4,25139,29615,621,16725,72381,16867,80.7705283,16
12077,Liberty,Florida,FL,30.259849,-84.86858,40,26.7123226,7.1,4851,5962,94,2639,82536,20084,82.06497552,13
12079,Madison,Florida,FL,30.447233,-83.470416,36,27.48344435,6.3,11013,13595,281,7469,78728,15147,83.54739067,16
12081,Manatee,Florida,FL,27.475556,-82.393144,26,19.39317165,7.9,257467,287043,5611,179993,116343,26985,77.67843196,11
12083,Marion,Florida,FL,29.202805,-82.0431,33,20.93014201,7.1,230792,263547,5289,137624,86037,21343,80.67048572,15
12085,Martin,Florida,FL,27.083604,-80.398201,20,18.623424,7.9,111547,122630,2333,74119,128657,26362,78.71165267,10
12086,Miami-Dade,Florida,FL,25.616009,-80.50375,22,15.93695724,8.3,1558994,1914094,33065,1383989,109223,19999,76.63234716,8
12087,Monroe,Florida,FL,25.58612,-81.022603,21,17.41895824,7.9,54387,59492,963,46755,138838,30082,68.80380887,7
12089,Nassau,Florida,FL,30.605963,-81.765087,30,19.8519305,7.9,55766,61082,1210,41210,131201,31516,84.38735178,11
12091,Okaloosa,Florida,FL,30.614325,-86.59108,27,19.87865462,7.5,129424,140078,2598,96940,117270,29158,81.98734801,12
12093,Okeechobee,Florida,FL,27.385592,-80.887388,34,25.72862772,5.3,22344,28952,617,17801,84196,20308,80.70036862,14
12095,Orange,Florida,FL,28.514391,-81.323284,27,15.75352509,7.8,800671,904375,22173,762737,116279,25733,78.73439143,9
12097,Osceola,Florida,FL,28.059027,-81.139312,32,16.50788956,7.5,201351,232156,6046,184329,96375,24819,80.38492759,12
12099,Palm Beach,Florida,FL,26.649126,-80.448354,22,16.63448119,8.1,948600,1071994,23969,733663,133137,26534,77.88602285,11
12101,Pasco,Florida,FL,28.309823,-82.511006,31,21.46767335,7.5,340699,380729,8310,237941,104003,23333,79.99675023,13
12103,Pinellas,Florida,FL,27.905342,-82.798066,27,20.248821,7.9,676803,741396,14713,494185,110173,23666,77.90642532,10
12105,Polk,Florida,FL,27.953649,-81.693534,37,20.62395549,7,404205,475256,11280,305752,95090,22981,83.39220101,13
12107,Putnam,Florida,FL,29.593896,-81.732039,39,27.39217476,6.2,42776,52277,1150,26563,73782,16015,81.03387507,18
12109,St. Johns,Florida,FL,29.890487,-81.40004,23,16.38393873,8.4,164427,173403,3494,132464,161240,36183,79.93634,8
12111,St. Lucie,Florida,FL,27.379814,-80.443536,31,20.21361269,7,196163,227271,5722,145111,98418,23602,80.21868635,12
12113,Santa Rosa,Florida,FL,30.675348,-87.018919,31,21.47413145,7.5,111584,122166,2455,82903,119124,30830,81.17263081,12
12115,Sarasota,Florida,FL,27.225327,-82.423714,21,18.20111306,8,311894,335030,5849,189137,122362,28699,81.46273158,10
12117,Seminole,Florida,FL,28.690065,-81.131975,26,16.00016799,8.1,306390,324951,7444,255529,129838,29484,80.96308829,10
12119,Sumter,Florida,FL,28.715444,-82.069952,29,19.0491695,8,103394,112211,1502,32628,101755,27360,75.01729822,17
12121,Suwannee,Florida,FL,30.189244,-82.992754,39,24.92424034,7,25636,31135,619,18046,85429,21262,78.00867918,15
12123,Taylor,Florida,FL,29.967146,-83.639573,36,26.80602239,6.5,12682,16100,295,8229,75417,18827,84.05035054,14
12125,Union,Florida,FL,30.05428,-82.366918,37,29.46155616,6.9,8582,11218,137,4638,86308,19760,79.51112332,14
12127,Volusia,Florida,FL,29.057769,-81.161792,32,20.58124154,7,359603,397329,8767,254312,95441,22301,80.81239692,13
12129,Wakulla,Florida,FL,30.091335,-84.359111,40,21.80369853,8.4,20478,23343,434,14921,101769,27473,84.42727477,9
12131,Walton,Florida,FL,30.571247,-86.162798,32,21.91758451,7.7,44599,50028,892,31577,115150,24996,76.97709413,13
12133,Washington,Florida,FL,30.602102,-85.655805,38,29.0039824,5.5,14529,17881,330,9678,73883,16988,87.89984426,14
13001,Appling,Georgia,GA,31.739712,-82.290103,34,24.54910608,7.1,9207,12288,361,9306,82405,16364,82.88453405,17
13003,Atkinson,Georgia,GA,31.296806,-82.878151,31,25.60380266,6.6,3495,5200,143,4695,77964,18185,82.42574257,13
13005,Bacon,Georgia,GA,31.55021,-82.451433,44,24.94627179,7,6036,7354,176,4966,88797,15711,80.0146771,13
13007,Baker,Georgia,GA,31.31958,-84.454881,36,21.90576926,4.7,1813,2249,55,1163,72647,11603,87.28813559,18
13009,Baldwin,Georgia,GA,33.05949,-83.255457,41,22.64608528,6.7,24166,28170,738,17409,88019,15472,86.37318944,12
13011,Banks,Georgia,GA,34.351922,-83.498441,33,23.47414164,8.4,9833,12958,264,9616,84685,19028,80.6277199,9
13013,Barrow,Georgia,GA,33.992009,-83.712303,39,20.24523651,8.3,43888,51919,1138,40385,106106,28427,82.96225644,14
13015,Bartow,Georgia,GA,34.240917,-84.838188,29,21.36518571,7.2,58744,70245,1654,50539,102799,24035,82.01805629,9
13017,Ben Hill,Georgia,GA,31.740772,-83.147197,42,23.8514354,5.7,9323,11161,295,5348,62852,12912,88.58633621,21
13019,Berrien,Georgia,GA,31.288652,-83.22787,37,25.48951446,6.5,10426,13193,298,7474,77618,15681,81.84055791,12
13021,Bibb,Georgia,GA,32.808845,-83.694194,39,20.53097145,6.4,85932,99931,2647,67896,93892,15140,82.70544917,19
13023,Bleckley,Georgia,GA,32.435403,-83.331717,41,21.82017071,7.4,6953,7851,228,4531,89622,16948,88.50959393,6
13025,Brantley,Georgia,GA,31.197334,-81.982978,34,26.43025602,7.4,10068,12768,294,7258,84707,17434,89.08251415,10
13027,Brooks,Georgia,GA,30.822934,-83.581905,31,23.35797448,7.2,9420,11065,233,6901,88117,13869,80.3256896,12
13029,Bryan,Georgia,GA,32.017969,-81.438543,40,16.83965744,8,21402,23357,548,18286,132043,28217,84.4809322,9
13031,Bulloch,Georgia,GA,32.394481,-81.741618,37,20.08830846,7.4,37173,42557,1370,36540,91509,17805,80.50239591,12
13033,Burke,Georgia,GA,33.060181,-82.000164,39,24.08873432,7.1,11795,14728,465,9154,95742,17730,87.03482695,21
13035,Butts,Georgia,GA,33.290355,-83.958221,38,24.36151339,7.5,13688,16983,360,10737,94359,21466,87.29168907,14
13037,Calhoun,Georgia,GA,31.521279,-84.62629,35,27.29470849,6.7,3433,4710,81,2233,70257,14570,78.7515006,11
13039,Camden,Georgia,GA,30.913358,-81.642019,37,19.1933857,7.3,30712,33629,756,20869,108805,25971,83.26852881,12
13043,Candler,Georgia,GA,32.40395,-82.071266,54,25.61163393,6.9,5564,7197,165,5548,78082,13198,80.86634237,15
13045,Carroll,Georgia,GA,33.582237,-85.080527,36,20.76873789,7.2,62734,74131,1885,55210,102466,23730,81.44098521,18
13047,Catoosa,Georgia,GA,34.900212,-85.139385,32,19.18098765,7.8,40204,45959,999,33517,104320,25792,85.75785103,17
13049,Charlton,Georgia,GA,30.779904,-82.139644,36,24.84006354,6.8,6780,9145,181,4785,81071,18099,86.74195924,14
13051,Chatham,Georgia,GA,31.980404,-81.085184,30,17.37141616,7.5,174706,194332,4605,139657,111797,23629,77.31141492,11
13053,Chattahoochee,Georgia,GA,32.347445,-84.788021,43,18.93049421,4.6,4829,5122,91,1997,88246,20929,48.21344247,11
13055,Chattooga,Georgia,GA,34.474178,-85.345289,34,25.67654673,7.6,12630,17107,512,10307,68667,15655,85.45372154,14
13057,Cherokee,Georgia,GA,34.244317,-84.475057,28,15.30857832,8.6,153149,166280,3696,135814,146264,37190,79.54070151,11
13059,Clarke,Georgia,GA,33.952185,-83.367152,25,18.51366429,5.7,62389,70914,2099,59096,89808,14427,72.73978812,7
13061,Clay,Georgia,GA,31.619831,-84.992583,41,27.10717139,1,1758,2197,61,880,59500,11606,79.49002217,13
13063,Clayton,Georgia,GA,33.542686,-84.355573,37,18.92814261,6.3,149134,175814,5816,137796,85428,21873,76.65408905,12
13065,Clinch,Georgia,GA,30.917653,-82.702614,46,28.02850542,6.4,3065,4431,104,2654,66400,6326,80.85009141,18
13067,Cobb,Georgia,GA,33.939929,-84.574121,28,13.7972732,8.1,463946,503789,12575,425167,151381,35459,79.30955776,9
13069,Coffee,Georgia,GA,31.549245,-82.84494,34,23.22838502,7,21365,28217,731,18869,77015,16293,84.19157364,14
13071,Colquitt,Georgia,GA,31.189707,-83.769773,40,23.48230801,7,22041,29488,675,21377,84648,16024,79.1833379,16
13073,Columbia,Georgia,GA,33.552075,-82.249608,33,15.93805599,8.8,92787,100048,2274,75134,143397,41275,87.34576596,9
13075,Cook,Georgia,GA,31.152516,-83.429445,29,23.57784245,7.1,8944,11302,270,7988,82542,15388,81.08146266,17
13077,Coweta,Georgia,GA,33.352897,-84.762138,31,16.93790242,8.3,85424,95812,2184,74594,130518,32161,82.53854325,14
13079,Crawford,Georgia,GA,32.709428,-83.979187,44,23.2179664,7.9,7238,8706,201,5605,91577,15341,90.34423035,17
13081,Crisp,Georgia,GA,31.920268,-83.75653,36,25.29673137,6.4,12538,15141,368,9433,77833,12885,80.24343514,18
13083,Dade,Georgia,GA,34.852424,-85.506201,38,21.82572925,8.1,8972,11111,268,8209,88650,21700,77.62853842,24
13085,Dawson,Georgia,GA,34.442608,-84.173261,28,17.10031135,9,15278,17525,349,12320,132375,33008,79.66200954,14
13087,Decatur,Georgia,GA,30.880643,-84.58389,27,22.65681759,6.7,14643,17744,439,11540,82255,16301,79.35730381,15
13089,DeKalb,Georgia,GA,33.770661,-84.226343,27,15.71802183,7.5,455295,509691,13654,399354,130491,26761,71.58924951,11
13091,Dodge,Georgia,GA,32.164369,-83.167866,42,23.23170017,7.3,12729,14872,381,7081,82316,15744,81.83925811,15
13093,Dooly,Georgia,GA,32.151995,-83.807167,39,24.18356586,7.3,7705,9919,191,5071,88412,16450,78.22465976,22
13095,Dougherty,Georgia,GA,31.532588,-84.20904,39,22.42406355,4.9,47961,57540,1818,38327,79154,14595,78.88982829,17
13097,Douglas,Georgia,GA,33.701242,-84.767314,34,17.82969501,7.3,81300,92600,2577,73217,114422,28274,82.0983329,11
13099,Early,Georgia,GA,31.324191,-84.906723,46,23.92494166,6.8,5488,6826,171,4372,76307,13367,85.09536785,12
13101,Echols,Georgia,GA,30.714008,-82.897376,34,23.17076717,7.6,2069,2790,53,1909,72900,13769,86.55606407,12
13103,Effingham,Georgia,GA,32.361688,-81.343355,36,19.67466073,8.5,34825,39433,889,30889,119258,30919,87.44817976,7
13105,Elbert,Georgia,GA,34.116415,-82.841892,44,23.14854629,6.5,10488,13373,306,7658,80005,16162,82.43331165,15
13107,Emanuel,Georgia,GA,32.5911,-82.299763,37,25.21271139,5.9,11695,14881,440,8287,80403,15115,78.00146413,20
13109,Evans,Georgia,GA,32.153083,-81.890153,42,23.84169188,7.4,5491,7207,164,4862,86692,14364,80.83152043,8
13111,Fannin,Georgia,GA,34.866543,-84.317331,29,20.29627159,8,16949,19573,380,11512,91721,21689,76.78608841,13
13113,Fayette,Georgia,GA,33.412717,-84.493941,28,12.72847542,8.8,72713,76272,1729,57985,172818,42703,78.8284168,8
13115,Floyd,Georgia,GA,34.263692,-85.213685,34,21.16159373,7.2,53433,64816,1689,44144,99312,21053,81.36467611,14
13117,Forsyth,Georgia,GA,34.225143,-84.127408,27,12.22849782,9.3,137639,148069,3339,122076,191379,48770,77.72812214,8
13119,Franklin,Georgia,GA,34.375266,-83.227532,28,23.86985233,7.5,12757,15505,350,9942,81327,15646,84.44566411,15
13121,Fulton,Georgia,GA,33.790034,-84.468182,25,13.28773562,7.6,648561,700646,19349,556954,156956,26386,71.58675231,8
13123,Gilmer,Georgia,GA,34.690506,-84.454624,25,21.36013172,7.9,18222,22298,417,11861,95662,21681,71.41064848,15
13125,Glascock,Georgia,GA,33.227491,-82.606913,31,25.15359386,5.7,1597,2041,47,1272,87071,17209,89.98459168,13
13127,Glynn,Georgia,GA,31.21271,-81.49645,32,18.56316123,7.1,52093,59132,1306,39345,115869,22164,81.89893923,10
13129,Gordon,Georgia,GA,34.509667,-84.873862,33,22.66529402,7.2,29722,38159,951,27976,89298,20147,80.19932524,13
13131,Grady,Georgia,GA,30.875908,-84.24508,36,22.95966247,7,13569,16933,356,10449,91814,17069,78.90470542,22
13133,Greene,Georgia,GA,33.576704,-83.166625,32,20.39586098,7.7,10970,12863,270,7010,118974,20110,81.18827402,12
13135,Gwinnett,Georgia,GA,33.958756,-84.025735,32,13.70454354,8.3,511093,583049,14728,489610,130711,33343,78.90865488,10
13137,Habersham,Georgia,GA,34.634392,-83.525875,31,21.17583247,7.6,24111,30284,658,19069,94417,20131,82.87383305,9
13139,Hall,Georgia,GA,34.317569,-83.8185,32,17.38202319,8,102585,129688,2839,102061,119876,28324,80.62364425,12
13141,Hancock,Georgia,GA,33.26922,-83.000465,30,26.62582351,6.1,4887,6590,135,2447,74000,15622,89.20829406,23
13143,Haralson,Georgia,GA,33.795165,-85.220063,25,22.95035323,8,16179,19915,416,12557,101356,19022,82.21696253,8
13145,Harris,Georgia,GA,32.731549,-84.912432,31,15.72718639,8.9,22042,23912,510,16649,138181,32118,86.1573472,16
13147,Hart,Georgia,GA,34.348733,-82.96329,32,23.53561545,7.5,15189,18641,400,11303,87982,18669,84.72108286,11
13149,Heard,Georgia,GA,33.291347,-85.137886,37,23.21443383,7.9,6447,8093,175,5248,85383,20361,83.50222943,9
13151,Henry,Georgia,GA,33.452947,-84.154021,35,16.93889834,8,132802,145565,4086,115495,122014,34727,81.55689973,12
13153,Houston,Georgia,GA,32.458287,-83.662522,37,18.19079475,7.3,91984,100473,2340,70345,115434,26144,85.91948878,15
13155,Irwin,Georgia,GA,31.604306,-83.277037,35,24.68539955,6.9,5081,6238,156,3328,76078,14928,90.63022867,15
13157,Jackson,Georgia,GA,34.130905,-83.562557,27,19.62501277,8.7,38547,45857,968,36518,117791,28403,83.97820697,9
13159,Jasper,Georgia,GA,33.316981,-83.689151,35,24.44713619,7.2,7982,9644,213,6939,89784,21741,85.52513867,13
13161,Jeff Davis,Georgia,GA,31.811615,-82.636825,38,24.93792148,7.4,7715,9735,279,6051,72940,15679,86.65524462,20
13163,Jefferson,Georgia,GA,33.058176,-82.420004,28,23.99452084,7.3,8134,10645,312,6572,74000,13126,83.43115881,23
13165,Jenkins,Georgia,GA,32.794563,-81.971524,35,25.44505478,7.2,4635,5847,160,3143,61775,12855,76.28607277,13
13167,Johnson,Georgia,GA,32.694584,-82.66397,47,24.94028046,7.4,5237,6969,147,4036,83581,14541,76.92109335,22
13169,Jones,Georgia,GA,33.021664,-83.562196,35,20.35292496,8.2,17503,19643,434,13696,99250,23042,83.71513944,24
13171,Lamar,Georgia,GA,33.07444,-84.146689,37,21.89215476,7.7,10571,12144,318,8232,87550,15772,85.57847009,17
13173,Lanier,Georgia,GA,31.038197,-83.063164,27,22.73366478,7.4,5478,6850,147,3748,83620,11642,88.18451578,23
13175,Laurens,Georgia,GA,32.39322,-82.926317,38,24.0321682,7,27263,31739,873,19142,83854,14379,86.51332985,17
13177,Lee,Georgia,GA,31.818419,-84.146681,40,17.75996039,8.4,17568,19336,449,14717,116681,33560,84.22772879,15
13179,Liberty,Georgia,GA,31.807458,-81.457871,38,19.3112803,6.1,32200,35502,977,26096,83265,24052,80.97943624,13
13181,Lincoln,Georgia,GA,33.792151,-82.448299,24,22.23729657,7.6,4735,5764,137,3554,87458,14577,88.5286783,19
13183,Long,Georgia,GA,31.749563,-81.74287,33,21.40195224,7.5,10268,11714,296,8137,93802,23908,81.89294675,11
13185,Lowndes,Georgia,GA,30.833145,-83.268995,36,19.95468584,6.7,59008,68109,1804,51180,89794,14569,84.40888178,17
13187,Lumpkin,Georgia,GA,34.56814,-83.998925,31,21.00789609,8.4,17304,20417,519,16719,98684,21893,85.61346714,13
13189,McDuffie,Georgia,GA,33.480613,-82.479533,40,23.41609894,7.1,11770,14116,450,8852,83181,16529,89.05655894,16
13191,McIntosh,Georgia,GA,31.485629,-81.372141,31,21.24861518,7.5,9417,11057,219,6167,94704,18301,81.28712871,18
13193,Macon,Georgia,GA,32.362686,-84.051231,30,25.24876135,6.4,7011,9527,217,4693,65272,12457,79.74007891,16
13195,Madison,Georgia,GA,34.128526,-83.203737,25,22.03732477,8.1,16753,20147,405,13282,98752,22556,81.52139461,16
13197,Marion,Georgia,GA,32.359312,-84.528735,31,22.91564533,7.9,4710,6052,140,3305,79448,18906,82.12273012,14
13199,Meriwether,Georgia,GA,33.029267,-84.667058,41,23.33373354,7.2,11810,14815,401,8911,77954,15519,81.93303853,19
13201,Miller,Georgia,GA,31.162931,-84.730398,24,22.52879013,7.7,3394,4109,90,2749,84259,15996,86.47523928,13
13205,Mitchell,Georgia,GA,31.228997,-84.192038,37,24.65696294,6.7,11766,15239,385,8445,69851,16569,79.9009901,10
13207,Monroe,Georgia,GA,33.017404,-83.922837,36,19.91951256,8.1,16331,19060,421,12995,127536,19768,87.3024474,15
13209,Montgomery,Georgia,GA,32.172108,-82.533349,30,22.08932052,7,4933,6035,200,3807,84539,15759,82.77567646,14
13211,Morgan,Georgia,GA,33.598696,-83.499435,31,18.69019218,8.1,11238,12820,287,9240,123067,28296,76.48264224,15
13213,Murray,Georgia,GA,34.797097,-84.73799,36,23.58695516,7.7,18725,26473,780,15505,86198,22907,89.66514372,16
13215,Muscogee,Georgia,GA,32.510197,-84.874946,38,19.36125791,6.4,111944,127141,3513,77490,94626,17690,79.62746398,15
13217,Newton,Georgia,GA,33.552751,-83.85136,40,19.55249975,7,60008,69268,2010,52197,104639,23968,81.05760981,18
13219,Oconee,Georgia,GA,33.834125,-83.437728,25,13.33325598,8.9,23591,24955,496,19510,159633,40235,80.99691842,10
13221,Oglethorpe,Georgia,GA,33.866806,-83.074081,37,22.0544847,8.2,8363,10488,223,6929,90424,20143,85.19670347,11
13223,Paulding,Georgia,GA,33.92103,-84.867169,37,17.39166023,8.4,92402,103393,2519,85916,120167,34703,83.83573726,10
13225,Peach,Georgia,GA,32.571324,-83.831978,42,20.71391961,6.9,14664,17670,483,11826,93338,15801,79.15749162,16
13227,Pickens,Georgia,GA,34.456746,-84.490351,34,18.90903314,8.6,19493,22844,455,15271,115644,28574,77.70591998,17
13229,Pierce,Georgia,GA,31.353998,-82.21037,36,22.53679709,7.5,10809,12962,294,8698,82518,18043,86.38079827,12
13231,Pike,Georgia,GA,33.081149,-84.389462,40,20.14704202,8.7,11001,12478,268,8899,113536,29176,88.03332492,14
13233,Polk,Georgia,GA,33.996015,-85.188338,42,22.70694782,7.7,21661,27499,668,18429,90563,20095,83.33240083,17
13235,Pulaski,Georgia,GA,32.238803,-83.481845,45,23.41563228,6.9,6768,8349,156,4052,87304,16632,87.59264343,17
13237,Putnam,Georgia,GA,33.32106,-83.37179,36,20.47178552,8.2,13740,15687,354,8185,105505,25380,78.78917531,15
13239,Quitman,Georgia,GA,31.862938,-85.004798,29,25.16929324,5.5,1135,1755,40,800,68318,12689,79.42283563,12
13241,Rabun,Georgia,GA,34.883934,-83.40487,38,21.33997413,7.9,10762,12695,252,7152,89239,20714,76.72342536,13
13243,Randolph,Georgia,GA,31.762651,-84.752311,38,26.46281913,5.2,3492,4686,122,2527,53203,15271,62.64755481,24
13245,Richmond,Georgia,GA,33.361486,-82.074998,36,21.48045431,5.8,111079,132014,3843,85085,84793,16471,79.59067915,14
13247,Rockdale,Georgia,GA,33.652081,-84.02637,45,17.34195447,7.2,52400,59040,1690,44751,114146,28356,79.10982949,16
13249,Schley,Georgia,GA,32.263444,-84.322708,28,21.79171502,7.7,2971,3392,85,2200,87889,16016,88.70214753,20
13251,Screven,Georgia,GA,32.744751,-81.617585,32,23.62054784,6.8,8114,9722,275,5088,86159,16489,85.02604167,14
13253,Seminole,Georgia,GA,30.93396,-84.867685,44,22.48604807,7.2,5155,5996,134,3037,77876,14567,82.39751981,10
13255,Spalding,Georgia,GA,33.262348,-84.284905,42,22.16144798,7,36451,44529,1145,28675,88934,21579,87.17665855,14
13257,Stephens,Georgia,GA,34.553582,-83.290588,39,21.01082159,7.4,14302,17427,412,10685,95365,19561,83.84919487,16
13259,Stewart,Georgia,GA,32.073225,-84.834912,32,25.08092949,6.3,3330,4890,100,2396,69379,12487,79.45113789,13
13261,Sumter,Georgia,GA,32.042266,-84.204294,36,22.39884364,6.2,15502,19035,609,12686,82045,15467,81.494383,24
13263,Talbot,Georgia,GA,32.704603,-84.530029,20,23.36923072,6.6,3870,4701,126,2819,73458,15356,85.03134796,26
13265,Taliaferro,Georgia,GA,33.559319,-82.875272,13,25.60819007,3.3,877,1235,28,567,69200,17130,75.16666667,13
13267,Tattnall,Georgia,GA,32.043768,-82.059208,36,24.58592104,7.6,13558,17880,366,9560,92000,18701,75.20858165,21
13269,Taylor,Georgia,GA,32.554667,-84.251426,46,25.33262312,7,4442,5659,124,3074,67250,13923,85.48280423,14
13271,Telfair,Georgia,GA,31.913641,-82.931063,31,25.62740207,7.2,8479,12059,391,4107,76717,15851,90.3708134,26
13273,Terrell,Georgia,GA,31.777191,-84.439446,35,24.44128328,6.5,4645,5995,177,3510,82884,14330,79.59369315,13
13275,Thomas,Georgia,GA,30.864619,-83.919815,37,21.44124134,6.5,25789,30392,663,16470,97249,19439,79.84057059,12
13277,Tift,Georgia,GA,31.457003,-83.525931,38,21.57956904,7.3,21128,25790,663,19751,90861,18848,84.52087104,10
13279,Toombs,Georgia,GA,32.117753,-82.330597,45,23.56314331,6.7,14055,17547,576,11655,90049,15324,83.77683253,19
13281,Towns,Georgia,GA,34.902529,-83.732264,26,19.26171628,8.1,7629,8484,188,3893,85992,21069,78.54047891,12
13283,Treutlen,Georgia,GA,32.409586,-82.570882,28,23.98112855,7.3,3471,4708,139,2642,76458,13736,84.63140358,7
13285,Troup,Georgia,GA,33.034482,-85.02836,50,21.70086037,7.1,38131,45720,1187,37304,95126,16099,83.28799201,13
13287,Turner,Georgia,GA,31.7248,-83.620319,39,23.8781556,6.5,4517,5563,120,3139,85024,10732,83.13802083,20
13289,Twiggs,Georgia,GA,32.665847,-83.425879,37,25.52281688,7.2,4581,6175,156,2878,77225,13062,85.93530239,15
13291,Union,Georgia,GA,34.833333,-83.989257,28,18.94915113,8.4,16159,18147,321,10274,95369,20728,78.58945092,12
13293,Upson,Georgia,GA,32.881837,-84.292283,22,23.61876002,6.5,14752,17929,404,11320,80959,16659,88.36331114,9
13295,Walker,Georgia,GA,34.735802,-85.305456,35,22.91030247,7,39797,48546,1116,31358,91105,20099,83.53016601,18
13297,Walton,Georgia,GA,33.783887,-83.731829,32,19.93178377,8.1,52911,60893,1410,46011,115303,26847,81.77836181,11
13299,Ware,Georgia,GA,31.050881,-82.421507,34,23.18687305,6.1,19923,24478,569,15555,81921,15811,84.8517273,14
13301,Warren,Georgia,GA,33.419169,-82.688012,50,24.64024291,7.3,2854,3899,128,2821,66567,12662,87.10298364,22
13303,Washington,Georgia,GA,32.971843,-82.798112,34,23.52215451,6.1,11600,14272,291,7013,83207,15964,80.74114892,19
13305,Wayne,Georgia,GA,31.547845,-81.912376,41,23.44364942,6.5,16698,20026,456,11403,87426,20131,82.52116651,15
13307,Webster,Georgia,GA,32.046691,-84.553828,23,24.33218782,7.4,1487,1876,50,1007,86667,12845,92.50234302,20
13309,Wheeler,Georgia,GA,32.105258,-82.733849,39,26.53075592,7,4385,5424,120,1610,63970,11689,87.3381877,12
13311,White,Georgia,GA,34.644182,-83.743,26,20.01755147,NA,17863,20966,430,16266,93134,26193,83.59331697,15
13313,Whitfield,Georgia,GA,34.801726,-84.968541,33,20.50371977,7.6,46652,67156,1927,43564,89004,22770,84.36736688,15
13315,Wilcox,Georgia,GA,31.96272,-83.438259,35,24.1005824,7.7,5228,6366,120,2695,85086,15615,86.03481625,22
13317,Wilkes,Georgia,GA,33.779031,-82.747921,41,23.67061375,6.5,5798,6928,173,3823,83054,16536,85.14285714,22
13319,Wilkinson,Georgia,GA,32.804266,-83.175512,34,24.09152119,6.7,5274,6247,151,3959,81385,15655,87.88723668,7
13321,Worth,Georgia,GA,31.551773,-83.84996,44,23.16614364,7.4,11789,14223,345,8897,88417,20386,86.26304323,23
16001,Ada,Idaho,ID,43.451477,-116.244376,25,15.11873732,8.6,292957,307855,6369,2.5,123929,28893,80.57155692,8
16003,Adams,Idaho,ID,44.877004,-116.461624,32,20.5493282,7.7,2896,3209,117,6.8,85569,23564,69.6969697,15
16005,Bannock,Idaho,ID,42.692921,-112.228982,31,18.69543297,7.7,50171,54266,1206,2.8,99958,21832,77.02816252,11
16007,Bear Lake,Idaho,ID,42.285892,-111.327517,30,18.37178683,7.9,3718,3976,87,2.9,95470,22073,71.79282869,11
16009,Benewah,Idaho,ID,47.218451,-116.633541,30,22.18225677,7.1,5676,6483,215,5.2,82183,22493,79.05544148,13
16011,Bingham,Idaho,ID,43.216357,-112.399206,34,18.95152569,8.1,24555,27543,635,2.7,99570,25221,74.53380856,11
16013,Blaine,Idaho,ID,43.394192,-113.955371,17,15.29570817,8.2,14063,15859,323,2.6,111910,25544,76.01646091,6
16015,Boise,Idaho,ID,43.987275,-115.71511,30,16.58032067,6.3,5420,5747,151,4.3,109058,26115,67.69230769,14
16017,Bonner,Idaho,ID,48.316796,-116.612362,25,18.68350667,7.7,29306,32261,836,4.2,95610,21259,73.27823692,10
16019,Bonneville,Idaho,ID,43.395171,-111.621878,29,16.17285666,8.2,63698,69273,1364,2.4,113112,27609,79.10240102,10
16021,Boundary,Idaho,ID,48.773131,-116.524668,27,19.1986492,7.6,7486,8156,238,4.4,83412,21766,79.20638439,9
16023,Butte,Idaho,ID,43.685101,-113.177631,26,18.45668007,7.5,1774,1912,37,2.6,102900,19233,74.73684211,10
16025,Camas,Idaho,ID,43.502552,-114.772135,30,20.62781864,3.2,683,732,19,2.7,98250,23633,81.33874239,8
16027,Canyon,Idaho,ID,43.625796,-116.709058,35,18.84329299,8,113942,133890,3344,3.2,93814,25541,78.97231441,10
16029,Caribou,Idaho,ID,42.786072,-111.544273,28,17.40442349,8.1,4017,4404,110,2.7,110155,27087,71.96165697,14
16031,Cassia,Idaho,ID,42.282313,-113.626328,34,18.97504601,7.8,11700,13993,295,2.4,93819,24735,80.36704649,12
16033,Clark,Idaho,ID,44.290218,-112.354613,27,21.01036428,3.2,329,550,14,3.7,80263,26364,80.4400978,6
16035,Clearwater,Idaho,ID,46.67257,-115.6535,34,20.26123856,7.3,6125,6774,197,6.8,82183,21306,76.40970735,14
16037,Custer,Idaho,ID,44.273351,-114.252267,24,19.34594775,6.2,2856,3195,94,4.2,87509,16199,61.54919749,9
16039,Elmore,Idaho,ID,43.394698,-115.471205,36,19.72557465,7.3,15075,16764,378,3.3,83146,22829,79.19109027,10
16041,Franklin,Idaho,ID,42.173609,-111.822965,29,18.10726357,8.6,7178,7947,165,2.3,105629,30728,80.66470486,8
16043,Fremont,Idaho,ID,44.218091,-111.484429,29,18.50597976,8.5,7282,8412,184,2.3,97647,28574,78.99223338,9
16045,Gem,Idaho,ID,44.061473,-116.398784,38,20.81847023,7,10504,11962,273,3.3,84468,20447,77.18453477,13
16047,Gooding,Idaho,ID,42.973185,-114.82142,31,19.6187749,8.7,7701,9741,217,2.6,86447,24350,79.25455071,9
16049,Idaho,Idaho,ID,45.849644,-115.467337,30,20.38141634,6.8,10953,12100,298,4.5,80829,18655,69.28299387,10
16051,Jefferson,Idaho,ID,43.796965,-112.318588,36,16.64098659,8.8,14825,16444,326,2.3,113631,37109,75.89313695,10
16053,Jerome,Idaho,ID,42.691395,-114.262086,32,19.34077202,7.7,11127,14411,315,2.6,94152,23119,79.49075365,9
16055,Kootenai,Idaho,ID,47.675957,-116.695919,26,16.68092788,8,101532,108997,2845,3.6,106054,27263,80.84407907,9
16057,Latah,Idaho,ID,46.81892,-116.730974,26,16.50297991,8.3,21389,22317,555,2.7,100380,21435,65.8934839,7
16059,Lemhi,Idaho,ID,44.928506,-113.887042,25,19.69283441,6.9,5456,5925,170,4.8,78512,19716,71.81789035,12
16061,Lewis,Idaho,ID,46.236328,-116.42376,31,21.36117193,6.3,2403,2716,90,5.5,76113,16613,76.06534091,11
16063,Lincoln,Idaho,ID,42.990782,-114.153089,30,20.15232156,4.7,2574,3361,96,3.6,84625,25044,71.67929797,10
16065,Madison,Idaho,ID,43.788614,-111.656993,27,18.00471199,7.6,15677,16345,402,1.8,86680,15556,70.76510367,7
16067,Minidoka,Idaho,ID,42.857211,-113.63984,31,20.04522298,7.9,10250,12941,291,2.5,94181,22676,82.73923191,13
16069,Nez Perce,Idaho,ID,46.333791,-116.760909,30,18.5295687,8.1,25786,28014,598,2.8,106562,24148,82.1866413,11
16071,Oneida,Idaho,ID,42.183895,-112.520449,32,18.96108416,8.3,2468,2736,53,2.3,87067,27697,76.84642439,12
16073,Owyhee,Idaho,ID,42.572851,-116.18969,40,21.11846409,7.4,5742,7541,183,3.4,81565,22190,74.69355477,16
16075,Payette,Idaho,ID,44.00243,-116.750238,38,19.07414153,7.6,13077,15266,415,3.6,96895,24894,81.9531814,11
16077,Power,Idaho,ID,42.694126,-112.844407,39,19.19491341,8.3,3932,4963,127,3.1,81970,26128,74.43076923,11
16079,Shoshone,Idaho,ID,47.347694,-115.885092,35,22.87300204,7.2,7930,9201,304,5.9,75979,18436,74.58732423,11
16081,Teton,Idaho,ID,43.760994,-111.211765,19,14.24396214,9.4,7221,7702,146,2.2,120950,30912,65.01462743,5
16083,Twin Falls,Idaho,ID,42.352309,-114.665639,31,16.92375977,8.4,47058,54031,1159,2.8,95499,24972,82.14611179,10
16085,Valley,Idaho,ID,44.85596,-115.618061,29,15.88294553,8,8060,8520,216,3.9,131278,27913,78.83429058,6
16087,Washington,Idaho,ID,44.448223,-116.797792,36,20.80980097,7.3,6055,7121,192,4.2,81907,18767,69.90658925,11
17001,Adams,Illinois,IL,39.986052,-91.194961,38,20.53537504,8.5,42674,46125,1109,3.4,101188,25082,83.08599814,13
17003,Alexander,Illinois,IL,37.183658,-89.349516,18,26.96056974,5.9,3892,4497,127,6.2,66152,15790,82.6446281,5
17005,Bond,Illinois,IL,38.885924,-89.436592,28,21.21915262,8.5,10475,11741,300,3.8,104566,22663,78.5928552,7
17007,Boone,Illinois,IL,42.318983,-88.824295,34,18.7661473,8.7,30179,35008,1487,5.6,127732,30059,81.6780081,9
17009,Brown,Illinois,IL,39.962069,-90.750309,21,21.84798448,8,4037,4863,72,2.4,110389,23594,83.61274099,8
17011,Bureau,Illinois,IL,41.401304,-89.528377,32,20.29257673,7.9,21417,23582,807,4.6,104508,26206,82.86259542,14
17013,Calhoun,Illinois,IL,39.164262,-90.666295,30,22.3738156,8.2,3196,3490,113,4.8,113171,22569,82.78976418,10
17015,Carroll,Illinois,IL,42.0709,-89.924189,29,20.88802667,8.3,9721,10663,303,4.1,96736,24617,83.31008833,10
17017,Cass,Illinois,IL,39.969202,-90.245704,33,22.31873584,8.6,7145,8503,253,4.1,94537,23919,81.90800681,7
17019,Champaign,Illinois,IL,40.138985,-88.196975,30,17.45001441,8.2,115865,121964,4102,3.8,114024,18221,70.81091203,9
17021,Christian,Illinois,IL,39.545524,-89.279593,36,22.15603542,8.5,21236,23675,705,4.8,96071,21902,82.11331679,11
17023,Clark,Illinois,IL,39.332334,-87.791683,31,22.16283089,8.3,10155,10941,348,4.5,105801,25729,81.22719286,11
17025,Clay,Illinois,IL,38.746819,-88.482325,28,22.56266579,8,8215,9338,296,4.5,90888,20469,84.8923284,15
17027,Clinton,Illinois,IL,38.606295,-89.426228,31,19.94762182,8.7,24071,26720,640,3.1,117963,30439,84.37789778,7
17029,Coles,Illinois,IL,39.51368,-88.220782,33,21.92835914,7.6,30115,32961,966,4,90952,17388,77.19369847,13
17031,Cook,Illinois,IL,41.894294,-87.645455,28,16.06921576,8.7,3125696,3587576,98233,3.8,136188,24601,61.1293265,10
17033,Crawford,Illinois,IL,39.002787,-87.760619,28,21.64493065,8.3,11710,13776,375,4.3,102898,21143,84.53403833,11
17035,Cumberland,Illinois,IL,39.273121,-88.240619,25,22.62827269,NA,6899,7615,210,3.4,99958,24736,84.71035138,11
17037,DeKalb,Illinois,IL,41.894612,-88.768991,33,18.61855706,7.7,56669,61396,2282,4.1,119917,24561,80.81147985,7
17039,De Witt,Illinois,IL,40.181499,-88.901853,28,20.60570235,8.8,10416,11381,325,4.3,105492,26279,85.75251689,19
17041,Douglas,Illinois,IL,39.766078,-88.222866,26,22.23734187,8.7,10913,13113,366,3.6,105240,24089,74.54449153,11
17043,DuPage,Illinois,IL,41.852058,-88.086039,26,14.20769981,9.3,591200,635683,14817,2.9,173238,40888,76.40103265,7
17045,Edgar,Illinois,IL,39.679037,-87.74711,31,21.98457219,7.3,11399,12655,383,4.2,90818,22010,83.7827808,11
17047,Edwards,Illinois,IL,38.417095,-88.047941,30,20.91364153,8.2,4154,4516,111,4.1,95344,23515,82.56055363,8
17049,Effingham,Illinois,IL,39.047945,-88.592849,29,20.31468879,8.6,21757,23379,630,3.3,110239,26201,84.61267812,13
17051,Fayette,Illinois,IL,39.001125,-89.017923,30,25.24010007,7,12824,15303,436,4.4,95699,20584,85.16158925,10
17053,Ford,Illinois,IL,40.596539,-88.224588,29,22.14044199,7.8,8399,9287,279,4.3,102404,23342,77.0736403,6
17055,Franklin,Illinois,IL,37.991852,-88.926321,33,24.66501895,7.5,24463,27508,891,5.4,86273,17145,82.84054229,15
17057,Fulton,Illinois,IL,40.46524,-90.202269,25,23.10101516,7.8,22555,25443,853,5.6,95772,22010,84.98212961,8
17059,Gallatin,Illinois,IL,37.768677,-88.227964,26,25.00061706,5.3,3219,3704,115,4.9,88792,15945,85.26011561,9
17061,Greene,Illinois,IL,39.355439,-90.387682,25,23.42267506,7.9,8457,9336,260,4.3,91722,22008,83.99137359,8
17063,Grundy,Illinois,IL,41.29241,-88.401054,32,18.01087695,8.8,31502,33798,1136,4.5,135680,37070,87.89826831,10
17065,Hamilton,Illinois,IL,38.085227,-88.539009,29,21.26435427,8.4,5045,5790,172,3.9,97912,24259,76.95199537,9
17067,Hancock,Illinois,IL,40.401318,-91.168801,30,21.12971433,7.6,12104,12954,397,4.7,93603,23182,85.87795766,9
17069,Hardin,Illinois,IL,37.517852,-88.266148,29,24.89154271,7.4,2382,2991,87,6.6,100350,23153,85.96899225,11
17071,Henderson,Illinois,IL,40.814471,-90.941246,35,21.33126371,8.9,4629,5076,175,4.8,93538,26295,83.74807988,13
17073,Henry,Illinois,IL,41.350021,-90.130838,33,20.33339649,8.5,31533,34574,1202,4.8,109932,25454,87.08617972,11
17075,Iroquois,Illinois,IL,40.748867,-87.833601,30,22.00454425,8,17626,19697,608,4.2,95725,22829,81.8575364,9
17077,Jackson,Illinois,IL,37.786096,-89.381212,25,21.54298372,6.9,32202,35042,1071,3.8,87967,13562,78.46134725,8
17079,Jasper,Illinois,IL,39.004886,-88.150725,24,21.53464251,8.1,6030,6717,198,4.2,99571,19119,81.32474701,9
17081,Jefferson,Illinois,IL,38.30078,-88.92421,38,22.64763238,7.3,23144,26472,805,4.6,96709,21223,81.86851652,9
17083,Jersey,Illinois,IL,39.080195,-90.361385,32,20.29135995,8.6,14077,15259,489,4.4,115417,28467,86.23477837,15
17085,Jo Daviess,Illinois,IL,42.362391,-90.21147,26,19.44809673,8.5,14884,16131,441,4.1,104122,26852,78.98346486,11
17087,Johnson,Illinois,IL,37.460709,-88.882131,23,22.86583972,7.2,7573,9208,250,6,97671,24165,84.27739545,9
17089,Kane,Illinois,IL,41.939594,-88.42804,28,15.91913586,9.1,292792,346073,12162,4.4,148778,35658,79.6094693,10
17091,Kankakee,Illinois,IL,41.13951,-87.861117,38,20.72252815,8.1,64283,72882,2811,5,112683,23928,81.87647317,13
17093,Kendall,Illinois,IL,41.58814,-88.430626,35,15.27848132,9.6,73244,79230,2272,3.3,157055,50706,82.90073495,9
17095,Knox,Illinois,IL,40.930945,-90.213792,35,23.28659274,7.6,31323,35172,1085,5,87217,17281,80.72323735,13
17097,Lake,Illinois,IL,42.185968,-87.805939,25,14.83954541,8.9,414815,457676,15603,4.1,179152,37206,76.82808962,9
17099,LaSalle,Illinois,IL,41.343341,-88.885931,32,21.79967253,8.1,68459,77275,2921,5.3,108911,25008,85.25807723,13
17101,Lawrence,Illinois,IL,38.718954,-87.730221,30,23.85940096,7.7,10063,11856,307,5.2,94752,21674,83.48608838,18
17103,Lee,Illinois,IL,41.747447,-89.299362,35,21.04947445,8.5,22174,24978,706,4,104805,25144,86.07919102,8
17105,Livingston,Illinois,IL,40.894376,-88.552852,30,21.82278523,8.4,22867,25434,679,4.1,105905,23665,81.56623443,12
17107,Logan,Illinois,IL,40.129277,-89.365309,35,20.34336223,8,18074,20373,554,4.3,107799,26885,80.30464335,14
17109,McDonough,Illinois,IL,40.455808,-90.678954,36,20.28100805,7.8,17053,18224,628,4.7,97921,15685,75.87536868,12
17111,McHenry,Illinois,IL,42.324298,-88.452245,33,15.98918332,9,193918,208188,5488,3.3,151259,40915,83.20731134,9
17113,McLean,Illinois,IL,40.494559,-88.844539,31,17.20209157,8.1,100583,104831,3326,3.8,133147,24998,80.79427158,10
17115,Macon,Illinois,IL,39.860237,-88.961529,36,21.18303979,7.7,65733,72701,2577,5.3,100332,20591,85.21978864,18
17117,Macoupin,Illinois,IL,39.265914,-89.92633,24,21.40352408,8.1,29482,32287,989,4.3,105032,23737,84.26699629,13
17119,Madison,Illinois,IL,38.82712,-89.900227,36,20.55201934,7.6,170977,184938,5291,3.9,116595,25440,85.66678892,12
17121,Marion,Illinois,IL,38.648236,-88.920362,24,23.46229414,7.1,23341,26236,791,4.5,91241,20082,85.58808683,15
17123,Marshall,Illinois,IL,41.031119,-89.342371,25,21.30445994,8.4,7805,8404,258,4.8,106917,24994,83.57951276,12
17125,Mason,Illinois,IL,40.236993,-89.913575,28,23.22434104,7.2,8796,9863,338,5.3,94908,24368,79.30646974,9
17127,Massac,Illinois,IL,37.216119,-88.705658,35,23.76057792,7.5,8695,10021,316,5.6,90535,19253,85.7372367,16
17129,Menard,Illinois,IL,40.022569,-89.794133,27,19.5305487,9,8217,8735,247,3.8,125386,34149,83.02588997,12
17131,Mercer,Illinois,IL,41.205605,-90.74177,34,20.79969682,8.3,10236,11135,407,5,102850,28680,88.32146217,9
17133,Monroe,Illinois,IL,38.277983,-90.179078,32,16.95217585,9.2,23170,24144,589,3.1,151125,36515,85.23433563,10
17135,Montgomery,Illinois,IL,39.228068,-89.478141,31,22.91773232,7.8,18372,20953,616,5.2,97264,21110,86.14938998,12
17137,Morgan,Illinois,IL,39.717668,-90.205005,38,21.77227694,7.3,21626,23794,668,4,95604,21489,82.54692388,18
17139,Moultrie,Illinois,IL,39.636896,-88.625726,24,21.93177424,9.1,8385,9894,254,3.3,104781,28818,77.36637372,8
17141,Ogle,Illinois,IL,42.041884,-89.320176,37,20.44633303,8.5,32094,35569,1215,4.8,111703,29052,81.47636836,10
17143,Peoria,Illinois,IL,40.785972,-89.766993,39,18.94505943,7.8,111737,122900,4368,5.1,109800,21635,83.10480105,13
17145,Perry,Illinois,IL,38.084381,-89.368525,28,24.0849245,7.3,12837,15409,431,5.1,93769,20139,83.39753946,10
17147,Piatt,Illinois,IL,40.009033,-88.592355,25,18.19488689,9.3,10875,11584,313,3.6,117422,32748,87.60199732,8
17149,Pike,Illinois,IL,39.625106,-90.889034,29,23.65890107,7.8,9710,10948,306,4.3,94851,20683,78.23048327,16
17151,Pope,Illinois,IL,37.417169,-88.542374,26,22.45744965,7.5,2865,3332,94,5.6,86853,13702,85.20871143,13
17153,Pulaski,Illinois,IL,37.215615,-89.127755,19,25.31565788,6.7,3456,3894,131,6.6,70417,14567,84.52047112,8
17155,Putnam,Illinois,IL,41.198961,-89.298347,26,20.28485886,8.9,3924,4233,154,5,102652,32062,86.45206933,8
17157,Randolph,Illinois,IL,38.056515,-89.82121,38,23.94330441,8.4,19781,23455,529,3.7,96912,25226,85.64386938,15
17159,Richland,Illinois,IL,38.712187,-88.085452,22,21.94466638,8.2,9798,10995,298,4.1,94988,22237,84.45684843,11
17161,Rock Island,Illinois,IL,41.468421,-90.572125,35,20.62098067,8,87853,99131,3560,4.9,104139,24065,83.54758869,12
17163,St. Clair,Illinois,IL,38.470198,-89.928546,37,19.33393398,7.3,162376,178334,5677,4.5,114485,22051,83.29043609,10
17165,Saline,Illinois,IL,37.751508,-88.545024,27,24.47108942,5.8,14835,17113,514,5.3,89843,15707,84.42529332,9
17167,Sangamon,Illinois,IL,39.756886,-89.662435,34,19.59642741,8.1,126270,136572,4092,4,119662,25134,83.28181378,11
17169,Schuyler,Illinois,IL,40.156905,-90.613464,25,22.59705603,7.6,4645,5195,138,4.2,91739,26190,76.82165163,11
17171,Scott,Illinois,IL,39.637002,-90.477771,26,22.10384321,8.7,3321,3552,120,4.7,101000,25148,82.50549451,14
17173,Shelby,Illinois,IL,39.384926,-88.798862,31,22.33143698,8.1,14377,15577,417,3.9,94609,24239,86.83622949,9
17175,Stark,Illinois,IL,41.096908,-89.797411,23,22.93828244,7.7,3542,3879,146,5.7,94143,22308,83.7000815,7
17177,Stephenson,Illinois,IL,42.349726,-89.665994,38,21.14342824,8.3,29623,32015,955,4.4,92145,21499,77.75249346,12
17179,Tazewell,Illinois,IL,40.508074,-89.51626,30,19.48312982,8.2,86497,93288,2835,4.4,116244,30172,87.06036026,10
17181,Union,Illinois,IL,37.485652,-89.244639,31,22.56009749,7.6,10814,12232,424,5.7,93939,19872,84.98248687,12
17183,Vermilion,Illinois,IL,40.186754,-87.726778,43,24.11243729,7.6,46728,52825,1711,5.1,90236,20358,84.35043176,12
17185,Wabash,Illinois,IL,38.445821,-87.839167,28,21.08948984,8.5,7404,8174,226,3.8,98856,20653,84.57496716,11
17187,Warren,Illinois,IL,40.850441,-90.620223,38,20.81054078,8.6,9711,11207,349,4.1,92839,24524,79.20030757,18
17189,Washington,Illinois,IL,38.35314,-89.417187,31,19.78302388,8.9,9315,10102,259,2.5,107614,29946,84.99710648,8
17191,Wayne,Illinois,IL,38.431857,-88.43243,29,22.67338673,7.7,10135,11525,335,4.8,88193,22649,82.64984227,20
17193,White,Illinois,IL,38.087326,-88.178623,29,22.88544205,7.3,8934,9933,254,3.8,89000,20706,86.1903948,9
17195,Whiteside,Illinois,IL,41.750673,-89.911005,36,20.6168167,8.3,35593,39288,1230,4.3,98360,25235,83.79847352,15
17197,Will,Illinois,IL,41.448474,-87.978456,34,15.79802869,9.1,411184,451665,13634,3.8,154470,39528,83.34178433,10
17199,Williamson,Illinois,IL,37.730353,-88.930018,29,21.39232457,8,43923,47585,1381,4.3,102531,21642,84.64094582,13
17201,Winnebago,Illinois,IL,42.337396,-89.161205,30,20.92401377,7.8,170068,193982,7948,5.7,105232,22844,83.16490566,11
17203,Woodford,Illinois,IL,40.789787,-89.210587,31,17.7846043,9.2,24695,26058,705,3.7,137394,35683,85.82604444,11
18001,Adams,Indiana,IN,40.745733,-84.93613,36,26.08391035,8.1,17992,21240,470,2.7,94882,23995,74.2800789,8
18003,Allen,Indiana,IN,41.091909,-85.071791,34,22.47581439,7.5,216491,242295,5876,3.1,103526,25315,83.66466732,11
18005,Bartholomew,Indiana,IN,39.205843,-85.897999,32,20.70280328,7.7,50710,55986,1125,2.5,116775,28148,84.37920272,12
18007,Benton,Indiana,IN,40.600939,-87.314786,36,25.46891243,8,5254,5845,146,3.2,89967,24496,80.6315266,16
18009,Blackford,Indiana,IN,40.472672,-85.32373,29,26.00700003,8,7603,8503,198,4,79286,22559,85.46307151,14
18011,Boone,Indiana,IN,40.050892,-86.469014,27,16.54773752,9,40558,43307,897,2.5,165966,39814,83.68576456,10
18013,Brown,Indiana,IN,39.195113,-86.230121,32,21.60705951,8.6,10528,11431,232,3,117085,25011,80.75904678,8
18015,Carroll,Indiana,IN,40.58498,-86.565141,41,22.95581514,8.4,12392,14011,309,3,106762,27457,85.23598661,10
18017,Cass,Indiana,IN,40.753799,-86.355168,35,24.29914362,8.2,22031,25806,629,3.5,89632,21751,83.61117498,17
18019,Clark,Indiana,IN,38.476217,-85.711122,38,22.54885152,7.9,72219,80741,2058,3.3,103189,27295,86.20094192,11
18021,Clay,Indiana,IN,39.393928,-87.115858,34,24.48604436,8,16653,18227,430,3.5,96444,25943,83.32767691,19
18023,Clinton,Indiana,IN,40.305944,-86.477567,37,23.2489899,8.5,18122,21158,462,2.7,91740,26861,80.87883551,17
18025,Crawford,Indiana,IN,38.289433,-86.440871,32,28.41154671,7.5,5944,7389,202,4.1,77181,17366,81.45315488,13
18027,Daviess,Indiana,IN,38.69609,-87.076943,30,26.88523607,8,15178,20565,435,2.6,106445,23561,73.1302521,8
18029,Dearborn,Indiana,IN,39.140897,-84.975868,32,22.77568755,8,30713,34269,921,3.6,119381,28641,85.79431609,11
18031,Decatur,Indiana,IN,39.30598,-85.499831,34,23.06572977,7.9,16243,17861,434,2.9,102426,27236,83.68637611,12
18033,DeKalb,Indiana,IN,41.39676,-85.002697,31,23.00127191,7.8,26122,28949,642,2.8,97110,27867,85.99519027,8
18035,Delaware,Indiana,IN,40.227543,-85.399262,34,24.97632945,7.1,63742,71040,2092,3.9,88845,17514,78.98044828,13
18037,Dubois,Indiana,IN,38.373344,-86.873385,32,21.46508597,8.6,25547,28618,555,2.4,107706,27480,88.50924724,10
18039,Elkhart,Indiana,IN,41.600693,-85.863986,34,22.75093298,7.9,104749,129685,3473,3.1,101890,26055,77.87952316,12
18041,Fayette,Indiana,IN,39.639655,-85.185032,39,28.34731321,6.9,13315,16222,416,4.7,88079,19957,86.60426731,16
18043,Floyd,Indiana,IN,38.318081,-85.911847,32,21.50995255,7.9,48264,53163,1321,3.2,121771,27286,86.21241959,14
18045,Fountain,Indiana,IN,40.121237,-87.234872,34,25.18423205,7.7,10250,11517,283,3.5,97227,23629,79.60305753,18
18047,Franklin,Indiana,IN,39.409762,-85.066964,36,23.77378594,8.3,13579,15546,394,3.4,111211,26002,86.64066751,13
18049,Fulton,Indiana,IN,41.050384,-86.265006,35,24.81844557,7.7,12150,13842,315,3.2,91780,24702,83.11991983,9
18051,Gibson,Indiana,IN,38.317398,-87.580523,34,23.45281651,8.5,20955,22808,491,2.5,102435,26650,88.42388644,9
18053,Grant,Indiana,IN,40.515758,-85.654946,37,25.60786332,7,38423,44057,1185,3.7,86020,20811,78.1656784,16
18055,Greene,Indiana,IN,39.047147,-87.004771,40,25.40890105,7.5,20019,22764,564,4.1,92536,21757,85.60697328,16
18057,Hamilton,Indiana,IN,40.053513,-86.021709,26,13.93273292,9,203235,209983,4657,2.5,181947,47064,82.41630294,8
18059,Hancock,Indiana,IN,39.822529,-85.77315,38,19.00774711,8.2,47816,51482,1153,2.8,125901,35698,88.38540857,12
18061,Harrison,Indiana,IN,38.186454,-86.103766,39,23.90496619,8.3,24761,27997,659,3.2,106148,24201,87.0775463,13
18063,Hendricks,Indiana,IN,39.768963,-86.509908,32,17.4981329,8.7,102381,108921,2446,2.7,138080,41402,84.99713239,12
18065,Henry,Indiana,IN,39.929591,-85.397363,31,24.92457655,7.9,30689,34362,730,3.3,88286,22961,84.92416118,12
18067,Howard,Indiana,IN,40.483537,-86.114118,35,25.15838692,7.2,51004,56983,1483,4,100745,21895,83.52941177,15
18069,Huntington,Indiana,IN,40.826394,-85.478597,39,23.58704244,7.8,22977,25019,599,3.3,96453,25522,87.98617587,15
18071,Jackson,Indiana,IN,38.911957,-86.042516,36,25.72383784,7.7,26169,29972,606,2.6,100781,24432,82.13849387,13
18073,Jasper,Indiana,IN,41.017688,-87.118814,36,22.71902297,8.4,19878,22532,604,3.7,107742,29844,85.21612304,10
18075,Jay,Indiana,IN,40.434956,-85.002331,34,27.55726712,7.2,12099,13745,287,3,83625,23171,76.40425532,19
18077,Jefferson,Indiana,IN,38.783604,-85.44009,33,24.2843355,7.5,20013,22311,511,3.4,94858,22384,83.72996257,12
18079,Jennings,Indiana,IN,38.996229,-85.628103,42,26.56290626,7,16647,18962,448,3.3,94107,27090,84.80087687,17
18081,Johnson,Indiana,IN,39.496092,-86.094264,33,21.24432427,8.1,94377,102467,2241,2.7,127471,34095,85.22706989,10
18083,Knox,Indiana,IN,38.688381,-87.420358,35,25.62146453,7.2,21738,24510,573,3.1,93982,21884,86.14579818,17
18085,Kosciusko,Indiana,IN,41.244293,-85.861575,35,22.42494333,8.2,45259,52826,1190,2.8,105471,29400,79.94088923,12
18087,LaGrange,Indiana,IN,41.642462,-85.427845,35,29.21118841,9,13982,22631,559,2.8,106568,31855,53.76344086,10
18089,Lake,Indiana,IN,41.472247,-87.374337,38,21.42751375,7.2,290671,327862,11355,4.9,108703,23550,83.56419807,14
18091,LaPorte,Indiana,IN,41.549013,-86.744739,37,25.82166697,7,68319,77222,2050,4.3,101629,23380,82.78739383,15
18093,Lawrence,Indiana,IN,38.839815,-86.48782,33,24.73995664,7.8,28385,32163,766,3.6,91129,23205,85.49983106,14
18095,Madison,Indiana,IN,40.166203,-85.722454,40,25.71504234,7,79639,90080,2190,3.7,94483,21232,81.44869783,19
18097,Marion,Indiana,IN,39.782976,-86.135794,33,21.70952964,7,539025,626402,16116,3.3,98519,20843,82.33661863,12
18099,Marshall,Indiana,IN,41.325003,-86.269036,43,24.01050429,8.1,26105,30735,726,3.1,100672,23700,79.22635412,13
18101,Martin,Indiana,IN,38.705322,-86.801847,46,25.4850706,8.2,6272,7120,141,2.6,95025,21697,79.55311973,10
18103,Miami,Indiana,IN,40.772883,-86.044258,38,26.85482804,7.1,21496,24955,606,3.9,90187,22851,86.49710367,10
18105,Monroe,Indiana,IN,39.160729,-86.52331,25,20.7359451,7.6,78353,84496,2338,3.3,106578,17831,72.02974102,7
18107,Montgomery,Indiana,IN,40.040296,-86.892715,29,23.50536684,7.9,23354,26020,577,3.1,98478,26230,82.03313584,13
18109,Morgan,Indiana,IN,39.482646,-86.447457,38,24.72461052,8.1,42508,48244,1128,3.1,115029,31258,84.9252365,15
18111,Newton,Indiana,IN,40.962399,-87.402172,33,26.52292462,7.8,8495,9907,289,4.1,95819,26335,82.29359341,17
18113,Noble,Indiana,IN,41.404679,-85.417271,37,23.525818,8.6,26352,31520,737,3.1,97083,26990,82.95253277,11
18115,Ohio,Indiana,IN,38.940527,-84.964299,28,23.18772179,NA,3838,4379,112,3.5,105959,26232,83.77816291,9
18117,Orange,Indiana,IN,38.547381,-86.489257,34,27.13615103,7.3,11279,13561,300,3.5,84327,19842,81.94363911,13
18119,Owen,Indiana,IN,39.317339,-86.838845,32,26.65435805,7.9,12776,14959,375,4,87704,22824,81.85547491,17
18121,Parke,Indiana,IN,39.77425,-87.19695,35,25.89929989,7.5,10375,12036,269,3.8,96102,24153,79.99381571,10
18123,Perry,Indiana,IN,38.081436,-86.62654,39,24.7356402,7.5,12294,13615,308,3.3,96935,23793,83.67643497,10
18125,Pike,Indiana,IN,38.397961,-87.232547,42,24.62441365,8.2,7562,8713,203,3.3,93008,25120,88.0065123,14
18127,Porter,Indiana,IN,41.509914,-87.071313,33,21.04637054,8,108229,115646,3263,3.7,125719,31155,85.86097542,11
18129,Posey,Indiana,IN,38.027614,-87.868653,34,22.06710197,8.2,16752,17933,374,2.7,117290,28557,88.40769546,13
18131,Pulaski,Indiana,IN,41.045272,-86.692538,35,24.98541536,8.1,7714,8719,202,3.1,86976,21884,78.83429852,10
18133,Putnam,Indiana,IN,39.665548,-86.853373,31,23.30137849,8.2,22048,24810,582,3.5,102012,28507,81.04866135,16
18135,Randolph,Indiana,IN,40.164079,-85.00579,33,25.83881407,7.4,15157,17321,425,3.7,86314,20957,81.45002682,13
18137,Ripley,Indiana,IN,39.100226,-85.260494,31,23.35072009,8.4,17190,19244,466,3.3,102443,26022,83.99509981,13
18139,Rush,Indiana,IN,39.622362,-85.466529,30,26.34339687,8,10060,11516,241,2.7,96826,24285,88.71732358,8
18141,St. Joseph,Indiana,IN,41.617723,-86.288048,35,21.11092325,7.3,155959,176171,4933,3.6,103332,22375,81.21899865,11
18143,Scott,Indiana,IN,38.679431,-85.751898,34,27.39581672,7.8,13688,16448,379,3.6,92150,20961,84.87795198,12
18145,Shelby,Indiana,IN,39.524135,-85.792174,37,23.79752574,8.2,26973,30884,675,2.9,104833,27210,86.22937369,17
18147,Spencer,Indiana,IN,38.009697,-87.010375,36,23.55299132,8.6,13026,14394,340,3.1,104189,26926,85.86002857,11
18149,Starke,Indiana,IN,41.284478,-86.644636,33,26.81075182,7.9,13412,15797,432,4.3,90579,22996,83.5612149,17
18151,Steuben,Indiana,IN,41.643467,-85.002405,30,23.01592763,7.9,21656,23759,553,2.7,100933,30118,81.82974051,10
18153,Sullivan,Indiana,IN,39.089225,-87.415843,37,25.97289356,7.8,13234,14914,359,4.3,95061,21544,86.41872624,15
18155,Switzerland,Indiana,IN,38.825854,-85.029681,41,27.61279693,7.6,6082,7253,167,3.3,88791,21554,81.53743613,21
18157,Tippecanoe,Indiana,IN,40.389133,-86.893554,30,19.98095132,7.6,96971,105826,2903,2.9,105169,21800,75.63342607,9
18159,Tipton,Indiana,IN,40.310229,-86.056207,37,22.40819498,8.4,9669,10828,253,2.7,108964,29453,85.10780769,16
18161,Union,Indiana,IN,39.623111,-84.925152,28,24.59076814,NA,4405,5038,117,3.3,93740,27814,85.42352589,8
18163,Vanderburgh,Indiana,IN,38.02007,-87.586166,34,23.33894276,7.6,111753,124059,2906,3.1,96976,21404,85.78129513,11
18165,Vermillion,Indiana,IN,39.854045,-87.462071,36,24.89979785,7.3,9927,10913,366,5.2,89108,22421,83.40342445,15
18167,Vigo,Indiana,IN,39.430874,-87.390989,34,24.91361633,6.5,61170,69229,2083,4.3,89476,18355,80.95437597,11
18169,Wabash,Indiana,IN,40.843747,-85.795192,34,24.48237202,7.9,19217,21643,471,3.1,90024,24695,86.17948539,12
18171,Warren,Indiana,IN,40.352498,-87.375163,38,22.54548015,8.4,5407,5880,127,3,107340,28673,82.05997392,16
18173,Warrick,Indiana,IN,38.097728,-87.272049,36,20.19586205,8.4,39984,42882,962,2.9,128588,33341,87.38113596,14
18175,Washington,Indiana,IN,38.600613,-86.104751,38,25.96174135,7.8,16439,19329,456,3.3,92352,20680,83.37514635,12
18177,Wayne,Indiana,IN,39.863091,-85.006735,36,25.33974181,7.3,39387,45550,1105,3.6,89084,21839,81.75224344,17
18179,Wells,Indiana,IN,40.735273,-85.212974,32,23.15957442,8.4,17502,18973,391,2.7,104637,27566,88.4059014,12
18181,White,Indiana,IN,40.75095,-86.864293,30,23.24699678,8.3,14757,16625,367,2.7,92923,26426,79.18642831,15
18183,Whitley,Indiana,IN,41.136426,-85.501892,31,21.23353245,8.6,21466,23372,527,2.9,106183,30707,86.62776992,13
19001,Adair,Iowa,IA,41.328528,-94.478164,29,20.40011372,8.9,4819,5115,101,2.4,100476,24023,79.62373372,15
19003,Adams,Iowa,IA,41.021656,-94.696906,37,19.9455332,8.9,2496,2662,38,1.7,91425,25375,77.05705706,10
19005,Allamakee,Iowa,IA,43.274964,-91.382751,41,19.87237004,9,8537,9672,263,3.5,96824,23283,76.81442524,9
19007,Appanoose,Iowa,IA,40.744249,-92.873062,45,21.30418072,7.9,8025,8901,215,3.6,80458,16992,83.46471832,15
19009,Audubon,Iowa,IA,41.679178,-94.904312,32,20.22115866,8.9,3606,4030,79,2.5,95026,24515,80.51585918,10
19011,Benton,Iowa,IA,42.092547,-92.05763,37,19.98590036,9,16701,17751,406,3,116354,29547,84.32909658,11
19013,Black Hawk,Iowa,IA,42.471132,-92.3076,31,18.82466936,7.8,76514,83718,2269,3.2,104061,24066,80.93012248,10
19015,Boone,Iowa,IA,42.038623,-93.938605,39,18.25036483,8.8,17418,18546,360,2.4,110737,30129,82.88770054,8
19017,Bremer,Iowa,IA,42.780895,-92.327356,35,16.26118175,9.4,15837,16428,329,2.3,119975,32202,80.39291217,9
19019,Buchanan,Iowa,IA,42.470328,-91.838666,39,18.64566353,8.8,13179,14005,318,2.8,112856,25960,79.26360315,10
19021,Buena Vista,Iowa,IA,42.741522,-95.141432,36,19.53159777,8.9,9856,12564,251,2.1,103201,27701,70.71540881,10
19023,Butler,Iowa,IA,42.734757,-92.780153,33,19.04372797,8,9511,10281,257,3.2,98026,26658,82.29875283,12
19025,Calhoun,Iowa,IA,42.38617,-94.643683,35,19.98683858,8.9,6564,6997,110,2.6,97019,23939,83.80396733,9
19027,Carroll,Iowa,IA,42.039502,-94.86765,37,18.72614113,9.2,12873,13762,216,1.9,108585,24722,82.63072364,10
19029,Cass,Iowa,IA,41.333824,-94.933302,33,20.70340857,8.1,8212,9331,198,2.8,90724,19114,79.5306802,13
19031,Cedar,Iowa,IA,41.77236,-91.132611,41,17.76112056,9,12378,12951,272,2.5,110528,31384,83.06800211,8
19033,Cerro Gordo,Iowa,IA,43.074975,-93.250965,34,17.98788278,8.5,28329,30568,657,2.7,101116,24094,81.81319435,10
19035,Cherokee,Iowa,IA,42.742737,-95.633262,35,19.31639976,8.9,7619,8182,157,2.5,108583,25985,82.13909378,11
19037,Chickasaw,Iowa,IA,43.059741,-92.31721,31,19.37903831,8.8,7695,8289,189,2.9,101670,29250,80.81060016,11
19039,Clarke,Iowa,IA,41.029726,-93.785259,40,20.24267588,8.6,5608,6390,144,2.9,94158,23542,79.43262411,9
19041,Clay,Iowa,IA,43.081224,-95.149875,30,19.41124112,8.5,10640,11372,239,2.8,98965,21525,78.24876629,10
19043,Clayton,Iowa,IA,42.840985,-91.323576,41,20.15579514,8.9,11430,12709,376,3.7,94643,24692,78.92793196,9
19045,Clinton,Iowa,IA,41.898073,-90.534243,35,20.09883715,8.3,29680,32650,863,3.7,99959,22732,82.77439024,13
19047,Crawford,Iowa,IA,42.043119,-95.38909,37,20.26017918,8,8908,11112,295,3.6,102082,21811,82.58056167,8
19049,Dallas,Iowa,IA,41.68532,-94.040706,30,13.23792977,9.6,54421,56905,988,2,157052,43197,85.60459015,7
19051,Davis,Iowa,IA,40.748089,-92.410345,31,21.16254164,8.5,4648,5592,122,2.9,109788,27456,72.07760314,12
19053,Decatur,Iowa,IA,40.736379,-93.78458,35,21.86992073,8,4311,4840,99,2.2,82895,17059,68.55713094,15
19055,Delaware,Iowa,IA,42.472937,-91.366767,35,19.85196241,9.1,10813,11792,252,2.4,107848,29771,82.48334607,10
19057,Des Moines,Iowa,IA,40.915339,-91.186925,36,21.85980979,7.7,25245,27429,777,4,98564,22677,83.11027837,14
19059,Dickinson,Iowa,IA,43.389611,-95.196057,26,17.09267247,8.8,12238,12748,295,2.9,113458,30271,81.38356466,12
19061,Dubuque,Iowa,IA,42.463481,-90.878771,37,17.11065858,8.6,60123,64854,1502,2.6,112244,27166,83.12185539,8
19063,Emmet,Iowa,IA,43.377984,-94.66937,36,19.33679903,8.2,5872,6476,136,2.6,96736,23836,77.58994365,9
19065,Fayette,Iowa,IA,42.864122,-91.840376,39,19.99091957,8.7,12628,13770,383,3.6,91790,23800,78.26809262,13
19067,Floyd,Iowa,IA,43.052741,-92.787367,43,20.40752141,8.1,9785,10861,320,3.6,96356,22075,74.47902928,10
19069,Franklin,Iowa,IA,42.736545,-93.271415,48,19.75824087,8.7,6449,7079,136,2.3,99621,27314,80.01626347,16
19071,Fremont,Iowa,IA,40.74259,-95.599182,36,20.70363786,7.2,4595,4988,103,2.8,99583,25726,80.84708814,10
19073,Greene,Iowa,IA,42.042513,-94.388727,40,19.48227675,8.6,5889,6304,132,2.4,97310,25941,80.94175407,16
19075,Grundy,Iowa,IA,42.403339,-92.790244,34,16.57610606,9.3,8158,8628,183,2.8,116163,33661,83.87991516,9
19077,Guthrie,Iowa,IA,41.683573,-94.501272,38,19.86864744,8.7,7017,7536,170,3,104910,26696,82.37416904,9
19079,Hamilton,Iowa,IA,42.390789,-93.70913,36,17.33022226,8.6,9841,10550,200,2.9,103454,27352,83.32875206,9
19081,Hancock,Iowa,IA,43.075411,-93.743697,34,18.18527979,8.9,7171,7682,145,2.4,102155,25906,78.81642083,6
19083,Hardin,Iowa,IA,42.390208,-93.241669,41,18.53487501,8.9,11236,12155,262,3.2,99010,23678,83.48315954,10
19085,Harrison,Iowa,IA,41.688584,-95.827149,37,19.71600719,8.6,9044,9882,183,2.4,111488,25406,80.62725507,15
19087,Henry,Iowa,IA,40.984802,-91.547259,36,18.67618958,8,12640,13657,264,2.7,96402,26519,82.67364519,9
19089,Howard,Iowa,IA,43.365312,-92.321908,34,20.23070903,8,5709,6280,148,2.8,98667,30153,74.16393443,11
19091,Humboldt,Iowa,IA,42.782221,-94.202775,32,19.5791283,8.5,6220,6701,138,2.7,106831,24619,82.77814065,9
19093,Ida,Iowa,IA,42.39186,-95.507421,32,19.73019144,9,4468,4793,83,2,111900,25460,76.55274889,9
19095,Iowa,Iowa,IA,41.683918,-92.059123,37,18.57346378,9,10579,11276,236,2.2,109263,28435,80.13519924,11
19097,Jackson,Iowa,IA,42.164226,-90.574582,34,20.32290047,8.4,12624,13639,352,3.2,103763,22919,83.65313262,11
19099,Jasper,Iowa,IA,41.685551,-93.054147,38,19.80918322,8.6,24441,26027,589,2.9,105872,27816,80.52444995,14
19101,Jefferson,Iowa,IA,41.006376,-91.966628,30,17.97859759,8.4,12708,13636,251,2.4,94272,20276,65.93886463,9
19103,Johnson,Iowa,IA,41.670668,-91.590529,27,14.45447732,8.9,83107,87536,1783,2,126017,22576,69.20713566,6
19105,Jones,Iowa,IA,42.125118,-91.116914,35,19.87176999,8.6,13551,14675,344,3.2,103370,28574,76.55502392,9
19107,Keokuk,Iowa,IA,41.331182,-92.167721,38,20.63868149,8.2,6647,7157,173,3.3,97217,22465,80.63776574,9
19109,Kossuth,Iowa,IA,43.212356,-94.213965,40,18.76675446,7.7,9885,10525,190,2.2,96797,24142,79.26049486,13
19111,Lee,Iowa,IA,40.647588,-91.477157,39,21.32114469,7.8,22539,24245,644,3.9,90590,23318,84.31944985,13
19113,Linn,Iowa,IA,42.077951,-91.597674,33,18.2936869,8.8,142265,150555,3622,2.9,119802,30298,85.37184165,10
19115,Louisa,Iowa,IA,41.218211,-91.256994,38,20.63109167,9.2,6490,7716,188,3.1,101908,25773,81.61909891,13
19117,Lucas,Iowa,IA,41.033344,-93.331467,37,21.20190424,8.1,5484,5956,97,2.1,100045,23739,81.97329377,15
19119,Lyon,Iowa,IA,43.38358,-96.207201,35,18.5960943,9.4,6904,7621,118,1.6,106029,32909,79.76170498,14
19121,Madison,Iowa,IA,41.330622,-94.015184,38,17.86683671,8.9,10348,10982,318,3.6,120984,29566,78.19218435,10
19123,Mahaska,Iowa,IA,41.330797,-92.636366,30,20.55480605,8.1,13774,14944,305,2.5,98006,21601,78.99697996,9
19125,Marion,Iowa,IA,41.331433,-93.093868,35,17.28475511,8.8,20511,21980,399,2.1,108257,29277,77.98263993,10
19127,Marshall,Iowa,IA,42.0417,-92.981403,36,18.78060228,8.5,22217,26497,823,4.5,101687,25937,76.48610812,12
19129,Mills,Iowa,IA,41.033703,-95.619101,31,18.20220288,8.9,9582,10327,175,2.3,130826,31538,84.82938194,7
19131,Mitchell,Iowa,IA,43.348564,-92.784466,38,20.0506586,8.6,6667,7264,118,1.7,103895,26831,77.32481683,9
19133,Monona,Iowa,IA,42.049432,-95.956566,33,21.22841763,8.2,5861,6351,134,3,94946,20775,80.58343057,10
19135,Monroe,Iowa,IA,41.028847,-92.869642,32,22.04880509,8.2,4712,5371,125,3.1,101076,25882,81.12449799,13
19137,Montgomery,Iowa,IA,41.021735,-95.15779,32,21.91754893,7.9,6318,6986,135,2.7,93245,22794,82.62125903,12
19139,Muscatine,Iowa,IA,41.483776,-91.118699,40,19.01327549,8.8,25476,28635,636,2.9,106971,27382,86.39969598,9
19141,O'Brien,Iowa,IA,43.083746,-95.625624,27,19.88909945,8.4,8826,9578,181,2.2,94684,25161,77.40891827,8
19143,Osceola,Iowa,IA,43.378542,-95.633788,37,19.57584042,8.8,3759,4250,69,1.9,100266,26483,79.29572873,11
19145,Page,Iowa,IA,40.739097,-95.144301,43,19.75339801,7.7,10191,11135,168,2.6,94048,23443,79.8722972,14
19147,Palo Alto,Iowa,IA,43.075337,-94.669055,33,17.90761492,8.5,5696,6145,108,2.2,98577,24775,78.13196612,11
19149,Plymouth,Iowa,IA,42.737585,-96.215864,33,17.91084118,9.3,15661,16820,338,2.2,114706,32332,81.30622118,10
19151,Pocahontas,Iowa,IA,42.734033,-94.678279,37,20.87546699,8.3,4496,4877,88,1.9,93953,23115,75.06067961,9
19153,Polk,Iowa,IA,41.684816,-93.568971,34,17.18241274,8.8,291065,318032,7753,2.8,125732,30787,83.55335817,9
19155,Pottawattamie,Iowa,IA,41.340184,-95.544905,42,20.66475664,8,56540,63198,1198,2.4,109789,26585,84.55207684,11
19157,Poweshiek,Iowa,IA,41.684642,-92.522934,34,18.54976346,8.8,11303,12033,281,2.7,104780,23277,73.60357485,8
19159,Ringgold,Iowa,IA,40.735334,-94.244251,32,19.87237767,8.7,3196,3446,72,2.9,102475,25726,82.94717331,10
19161,Sac,Iowa,IA,42.387526,-95.105224,37,19.22084052,8.2,6441,6941,127,2.4,106132,26820,83.46185065,10
19163,Scott,Iowa,IA,41.642079,-90.622289,34,17.23078455,8.8,108395,116769,3024,3.3,119003,26157,86.55603252,12
19165,Shelby,Iowa,IA,41.679014,-95.308917,34,18.45623022,8.4,7612,8236,144,2.1,106202,27213,77.3653088,11
19167,Sioux,Iowa,IA,43.082646,-96.17801,28,17.11900172,9.6,18703,20725,401,1.9,112685,36182,76.62238676,9
19169,Story,Iowa,IA,42.037538,-93.466093,29,15.70119806,8.3,49367,50812,1100,1.9,113626,20198,72.64548163,8
19171,Tama,Iowa,IA,42.074848,-92.529411,33,20.28902807,8.5,10606,11620,300,3.1,100315,26398,80.31050668,10
19173,Taylor,Iowa,IA,40.737949,-94.697108,34,21.30563375,9,3846,4265,62,1.9,97655,24241,77.74379885,12
19175,Union,Iowa,IA,41.02855,-94.245091,37,21.685217,8,7617,8439,206,3.2,100145,20698,79.14357683,20
19177,Van Buren,Iowa,IA,40.754117,-91.952943,33,21.56079615,7,4476,5018,101,2.7,85826,23117,71.39979859,9
19179,Wapello,Iowa,IA,41.031275,-92.409466,32,21.89653086,6.7,21112,23951,664,3.7,93680,20445,83.22641509,15
19181,Warren,Iowa,IA,41.332446,-93.568751,37,16.32253844,9.2,31374,32901,730,2.5,131291,33921,84.4568567,10
19183,Washington,Iowa,IA,41.329401,-91.725052,33,19.7492189,9.1,13587,14862,303,2.5,106905,31368,76.84134048,11
19185,Wayne,Iowa,IA,40.739983,-93.332613,49,23.20041444,7.2,3835,4363,74,2.6,79533,21826,75.78181818,20
19187,Webster,Iowa,IA,42.433579,-94.175831,38,21.08551817,7.9,22305,24654,615,3.1,93757,20341,80.51468362,10
19189,Winnebago,Iowa,IA,43.378124,-93.743488,40,18.51418065,8.6,6579,7117,144,2.8,99725,25889,78.35765058,11
19191,Winneshiek,Iowa,IA,43.292989,-91.850788,31,16.98527965,9,12633,13265,346,2.9,107966,29093,68.20966048,6
19193,Woodbury,Iowa,IA,42.39322,-96.053296,35,20.5185192,8.1,57308,65818,1532,2.7,107545,25352,83.31215421,10
19195,Worth,Iowa,IA,43.373491,-93.248533,32,19.36688419,8.8,4922,5275,120,2.8,103839,28610,83.21280992,16
19197,Wright,Iowa,IA,42.733007,-93.734735,38,20.47388039,8.7,8174,8851,183,2.6,94170,24062,82.86620836,10
20001,Allen,Kansas,KS,37.884228,-95.300945,39,21.4939773,6.1,7867,8560,227,3.5,81765,17379,85.16228748,17
20003,Anderson,Kansas,KS,38.215114,-95.292046,35,22.08896541,7.5,4756,5225,137,3.3,87090,20468,74.52171272,12
20005,Atchison,Kansas,KS,39.532544,-95.313397,37,22.71950228,7.4,9399,10135,361,5.2,97460,21659,79.07917047,12
20007,Barber,Kansas,KS,37.222906,-98.685052,30,22.36312631,7.9,2931,3216,58,2.5,95207,18087,83.17399618,10
20009,Barton,Kansas,KS,38.481239,-98.767837,37,21.27872386,7.3,15980,17859,423,3.1,94802,21779,84.31747002,14
20011,Bourbon,Kansas,KS,37.8561,-94.850928,37,22.95522291,6.9,8703,9530,284,4.2,83895,19724,76.13207547,14
20013,Brown,Kansas,KS,39.825931,-95.569905,40,21.22207813,7.9,6103,6548,169,3.2,87186,24597,79.2882405,13
20015,Butler,Kansas,KS,37.773649,-96.83884,37,18.60673123,8,40526,43819,1049,3.2,118665,30369,84.13087534,10
20017,Chase,Kansas,KS,38.299475,-96.594029,42,20.15809396,5.3,1671,1820,42,2.8,84813,20821,75.13611615,11
20019,Chautauqua,Kansas,KS,37.154259,-96.245396,35,23.62276182,6.3,2068,2388,56,3.9,76566,18159,75.27675277,10
20021,Cherokee,Kansas,KS,37.169392,-94.845698,40,22.83435864,7.4,12456,13859,348,3.4,86605,19878,82.72727273,15
20023,Cheyenne,Kansas,KS,39.789917,-101.727325,35,19.50148106,8.4,1787,1910,32,2.4,93250,19320,76.45186953,13
20025,Clark,Kansas,KS,37.233831,-99.813869,36,18.59608332,5.6,1339,1413,25,2.3,94233,24788,77.41935484,11
20027,Clay,Kansas,KS,39.344964,-97.168853,32,18.9797354,8,5239,5642,121,3.2,91449,23692,82.47796786,13
20029,Cloud,Kansas,KS,39.487329,-97.64139,38,20.9834601,7.2,5578,6001,122,3.2,91566,22840,83.46109175,10
20031,Coffey,Kansas,KS,38.23645,-95.729137,42,19.35054546,7.3,5408,5833,182,4.5,118276,24770,84.08744281,14
20033,Comanche,Kansas,KS,37.181442,-99.251293,28,18.12616658,8.7,1172,1248,23,2.6,94979,21891,83.29694323,11
20035,Cowley,Kansas,KS,37.234507,-96.837247,39,21.72706327,6.8,21167,23347,549,3.4,95021,22606,81.83258516,13
20037,Crawford,Kansas,KS,37.505821,-94.853897,31,21.57161469,6.4,21424,23261,726,3.9,86570,16104,85.95649567,11
20039,Decatur,Kansas,KS,39.783542,-100.459708,36,20.85291152,6.9,2018,2147,37,3,86024,21386,70.52860246,12
20041,Dickinson,Kansas,KS,38.867735,-97.157943,40,21.56898605,7.8,11929,13044,314,3.6,93353,20348,77.73019272,11
20043,Doniphan,Kansas,KS,39.788502,-95.147225,36,21.81678565,6.3,4519,5003,139,3.4,95489,21393,83.84313726,11
20045,Douglas,Kansas,KS,38.896417,-95.290947,28,16.01883364,7.9,66497,69728,1918,2.9,117121,23011,77.7358209,7
20047,Edwards,Kansas,KS,37.883595,-99.304746,35,20.56360964,8.4,1804,2113,38,2.6,85563,24225,81.46551724,12
20049,Elk,Kansas,KS,37.456026,-96.244642,33,22.81993457,4,1667,1884,43,3.7,80750,16278,78.44374343,23
20051,Ellis,Kansas,KS,38.914597,-99.317313,31,18.79465711,7.9,16286,17454,387,2.3,105831,19980,85.54020101,7
20053,Ellsworth,Kansas,KS,38.700845,-98.205355,40,20.27029856,7.5,4142,4521,77,2.8,99757,23396,80.16436309,12
